date,county,state,fips,cases,deaths,stay_at_home_announced,stay_at_home_effective,lat,lon,total_population,area_sqmi,population_density_per_sqmi
10/31/2020,Autauga,Alabama,1001,2159,31,yes,yes,32.53492796,-86.64274781,55049,594.4461199,92.60553338
10/31/2020,Baldwin,Alabama,1003,6940,71,yes,yes,30.72748899,-87.72257524,199510,1589.807425,125.4931867
10/31/2020,Barbour,Alabama,1005,1060,9,yes,yes,31.86958881,-85.39321291,26614,884.875776,30.07653811
10/31/2020,Bibb,Alabama,1007,873,15,yes,yes,32.99863415,-87.12648014,22572,622.5823549,36.25544448
10/31/2020,Blount,Alabama,1009,2074,25,yes,yes,33.9808782,-86.56738341,57704,644.806508,89.4904119
10/31/2020,Bullock,Alabama,1011,653,17,yes,yes,32.10053438,-85.71568627,10552,622.8053585,16.94269302
10/31/2020,Butler,Alabama,1013,1022,41,yes,yes,31.75241781,-86.68030288,20280,776.8280471,26.10616349
10/31/2020,Calhoun,Alabama,1015,4861,65,yes,yes,33.77143651,-85.82603459,115883,605.8887948,191.2611704
10/31/2020,Chambers,Alabama,1017,1389,47,yes,yes,32.91435287,-85.39203349,34018,596.5311116,57.02636348
10/31/2020,Cherokee,Alabama,1019,783,15,yes,yes,34.17592601,-85.60380039,25897,553.719701,46.76915044
10/31/2020,Chilton,Alabama,1021,1938,33,yes,yes,32.84786998,-86.71880376,43817,692.8534351,63.24136936
10/31/2020,Choctaw,Alabama,1023,395,12,yes,yes,32.0197775,-88.2631849,13287,913.4999794,14.54515632
10/31/2020,Clarke,Alabama,1025,1394,17,yes,yes,31.67668212,-87.83081391,24847,1238.46438,20.062749
10/31/2020,Clay,Alabama,1027,772,12,yes,yes,33.2690306,-85.86058307,13483,603.9610014,22.3242891
10/31/2020,Cleburne,Alabama,1029,583,9,yes,yes,33.67451959,-85.51881383,14991,560.1042489,26.76466038
10/31/2020,Coffee,Alabama,1031,1865,11,yes,yes,31.40265228,-85.98815917,50991,678.9856517,75.09878872
10/31/2020,Colbert,Alabama,1033,2151,32,yes,yes,34.70047669,-87.80493371,54377,592.619664,91.75699576
10/31/2020,Conecuh,Alabama,1035,577,13,yes,yes,31.42923975,-86.99367837,12697,850.1564718,14.93489778
10/31/2020,Coosa,Alabama,1037,222,3,yes,yes,32.93624951,-86.24765729,10864,650.9260907,16.6900669
10/31/2020,Covington,Alabama,1039,1886,30,yes,yes,31.24849866,-86.45127715,37729,1030.455836,36.61389326
10/31/2020,Crenshaw,Alabama,1041,620,30,yes,yes,31.73153754,-86.31357901,13896,608.8395268,22.82374811
10/31/2020,Cullman,Alabama,1043,2781,25,yes,yes,34.13195,-86.86758257,81316,734.8974892,110.6494459
10/31/2020,Dale,Alabama,1045,1906,52,yes,yes,31.43181495,-85.61100904,49607,561.125964,88.40617469
10/31/2020,Dallas,Alabama,1047,1906,27,yes,yes,32.32597601,-87.10647208,41426,978.6941369,42.32783097
10/31/2020,DeKalb,Alabama,1049,3658,30,yes,yes,34.45980613,-85.80411386,70937,777.0937174,91.28500002
10/31/2020,Elmore,Alabama,1051,3309,59,yes,yes,32.59665284,-86.14916394,80957,618.4877335,130.8950778
10/31/2020,Escambia,Alabama,1053,1766,31,yes,yes,31.12614174,-87.1615837,37875,945.0800535,40.07597014
10/31/2020,Etowah,Alabama,1055,4512,54,yes,yes,34.04526554,-86.03476326,103363,535.2839267,193.0993905
10/31/2020,Fayette,Alabama,1057,608,14,yes,yes,33.72123026,-87.73886639,16783,627.6834287,26.73800077
10/31/2020,Franklin,Alabama,1059,2120,32,yes,yes,34.44169874,-87.84373986,31573,633.8166196,49.81409295
10/31/2020,Geneva,Alabama,1061,971,7,yes,yes,31.0950592,-85.83909125,26765,574.4081037,46.59579109
10/31/2020,Greene,Alabama,1063,351,17,yes,yes,32.85315674,-87.9522131,8587,647.1045238,13.26988096
10/31/2020,Hale,Alabama,1065,793,30,yes,yes,32.76266973,-87.62915115,15159,643.9426855,23.54091496
10/31/2020,Henry,Alabama,1067,744,6,yes,yes,31.51471008,-85.24141827,17187,561.7500759,30.59545648
10/31/2020,Houston,Alabama,1069,4300,35,yes,yes,31.15320567,-85.30247675,103891,579.866113,179.1637719
10/31/2020,Jackson,Alabama,1071,2321,19,yes,yes,34.77947284,-85.99935097,52608,1077.866978,48.80750695
10/31/2020,Jefferson,Alabama,1073,24285,384,yes,yes,33.55431974,-86.89649571,659096,1111.288088,593.0919328
10/31/2020,Lamar,Alabama,1075,530,6,yes,yes,33.77914785,-88.09695923,14066,604.8460182,23.25550566
10/31/2020,Lauderdale,Alabama,1077,2465,43,yes,yes,34.90141329,-87.65401498,92641,667.699347,138.7465787
10/31/2020,Lawrence,Alabama,1079,916,33,yes,yes,34.52168287,-87.31099415,33433,690.6771523,48.40611839
10/31/2020,Lee,Alabama,1081,6702,65,yes,yes,32.6011521,-85.35547541,153947,607.5517044,253.3891336
10/31/2020,Limestone,Alabama,1083,3031,34,yes,yes,34.81010556,-86.98140612,90257,559.9391977,161.1907157
10/31/2020,Lowndes,Alabama,1085,726,29,yes,yes,32.15475389,-86.65010295,10565,715.9111666,14.75741753
10/31/2020,Macon,Alabama,1087,558,21,yes,yes,32.38596506,-85.69265703,19684,608.907934,32.32672609
10/31/2020,Madison,Alabama,1089,9680,101,yes,yes,34.76309646,-86.55023073,349973,801.6084013,436.5884881
10/31/2020,Marengo,Alabama,1091,1061,23,yes,yes,32.24767124,-87.78954307,20066,976.881425,20.54087578
10/31/2020,Marion,Alabama,1093,1121,31,yes,yes,34.13656412,-87.88713856,30239,742.2917043,40.73735409
10/31/2020,Marshall,Alabama,1095,4537,52,yes,yes,34.36696256,-86.30664428,94534,565.8417853,167.0679021
10/31/2020,Mobile,Alabama,1097,17261,320,yes,yes,30.79152145,-88.20647692,414291,1229.399477,336.9864782
10/31/2020,Monroe,Alabama,1099,667,10,yes,yes,31.57088474,-87.36543553,21975,1025.68699,21.42466486
10/31/2020,Montgomery,Alabama,1101,10654,210,yes,yes,32.22026918,-86.20762341,227392,784.3631172,289.9065433
10/31/2020,Morgan,Alabama,1103,4474,36,yes,yes,34.45347499,-86.85294744,119555,579.3594928,206.3571953
10/31/2020,Perry,Alabama,1105,604,6,yes,yes,32.63846817,-87.29441186,9856,719.6632217,13.69529483
10/31/2020,Pickens,Alabama,1107,916,18,yes,yes,33.28080083,-88.08875635,20042,881.4298836,22.73805367
10/31/2020,Pike,Alabama,1109,1379,14,yes,yes,31.80273315,-85.94093763,33277,672.1036623,49.51170759
10/31/2020,Randolph,Alabama,1111,859,16,yes,yes,33.29379108,-85.45913323,22615,580.5491834,38.95449455
10/31/2020,Russell,Alabama,1113,2004,3,yes,yes,32.28840212,-85.18492879,58636,641.1535846,91.45390653
10/31/2020,Shelby,Alabama,1117,7716,70,yes,yes,33.26428465,-86.66066941,205951,785.368628,262.234819
10/31/2020,St. Clair,Alabama,1115,3206,43,yes,yes,33.71569927,-86.31470916,86576,631.9042676,137.0080951
10/31/2020,Sumter,Alabama,1119,487,21,yes,yes,32.59106113,-88.1988513,13285,903.8890524,14.69760029
10/31/2020,Talladega,Alabama,1121,2797,38,yes,yes,33.38008735,-86.16589091,81057,736.7768762,110.0156677
10/31/2020,Tallapoosa,Alabama,1123,1398,87,yes,yes,32.86238365,-85.797503,40958,716.5202923,57.1623727
10/31/2020,Tuscaloosa,Alabama,1125,10734,145,yes,yes,33.28957824,-87.52511536,202471,1321.676625,153.1925406
10/31/2020,Walker,Alabama,1127,2949,95,yes,yes,33.80331673,-87.29733269,65593,791.1932906,82.90388807
10/31/2020,Washington,Alabama,1129,768,12,yes,yes,31.40763462,-88.20786221,16909,1080.206166,15.65349331
10/31/2020,Wilcox,Alabama,1131,573,12,yes,yes,31.9893103,-87.30819998,11119,888.497905,12.51437954
10/31/2020,Winston,Alabama,1133,964,13,yes,yes,34.14920425,-87.37366922,24013,612.97898,39.17426337
10/31/2020,Aleutians East Borough,Alaska,2013,15,0,yes,yes,55.6854324,-161.2444121,3299,6981.956449,0.472503663
10/31/2020,Aleutians West Census Area,Alaska,2016,99,0,yes,yes,53.66775033,-166.8904227,5714,4390.257721,1.301518125
10/31/2020,Anchorage,Alaska,2020,8349,49,yes,yes,61.15077639,-149.104986,299321,1706.606336,175.3895984
10/31/2020,Bethel Census Area,Alaska,2050,476,1,yes,yes,60.94731083,-159.5223609,17885,40570.10555,0.44084184
10/31/2020,Bristol Bay Borough,Alaska,2060,76,0,yes,yes,58.74195143,-156.7028794,942,503.849891,1.869604453
10/31/2020,Denali Borough,Alaska,2068,31,0,yes,yes,63.6731969,-150.0094545,2125,12747.59034,0.166698171
10/31/2020,Dillingham Census Area,Alaska,2070,60,0,yes,yes,59.80880284,-158.1908234,4980,18568.72782,0.268192848
10/31/2020,Fairbanks North Star Borough,Alaska,2090,2249,15,yes,yes,64.8079232,-146.5636793,100150,7343.295634,13.63829063
10/31/2020,Haines Borough,Alaska,2100,13,0,yes,yes,59.11469218,-135.7005215,2528,2320.201438,1.089560569
10/31/2020,Juneau City and Borough,Alaska,2110,569,2,yes,yes,58.46978772,-134.1576529,32524,2702.004858,12.03698798
10/31/2020,Kenai Peninsula Borough,Alaska,2122,1086,2,yes,yes,60.18722842,-150.2951884,57637,16075.07483,3.585488752
10/31/2020,Ketchikan Gateway Borough,Alaska,2130,85,0,yes,yes,55.59645414,-130.9176881,13715,4858.403427,2.822943835
10/31/2020,Kodiak Island Borough,Alaska,2150,120,0,yes,yes,57.4309746,-153.5372858,13918,6550.347829,2.124772663
10/31/2020,Kusilvak Census Area,Alaska,2158,239,0,yes,yes,62.15453871,-163.3786399,7993,17081.35477,0.467937122
10/31/2020,Lake and Peninsula Borough,Alaska,2164,5,0,yes,yes,58.64913534,-156.1787801,1411,23450.23431,0.060169974
10/31/2020,Matanuska-Susitna Borough,Alaska,2170,1442,3,yes,yes,62.31573986,-149.5706789,98679,24607.92935,4.0100489
10/31/2020,Nome Census Area,Alaska,2180,137,0,yes,yes,65.03932964,-163.5105174,9879,22962.94213,0.430214906
10/31/2020,North Slope Borough,Alaska,2185,270,0,yes,yes,69.31184813,-153.4794806,9681,88838.99732,0.108972414
10/31/2020,Northwest Arctic Borough,Alaska,2188,257,0,yes,yes,67.05300248,-159.7210084,7723,35635.34431,0.216723036
10/31/2020,Petersburg Borough,Alaska,2195,18,0,yes,yes,57.27475293,-132.8640564,3196,2917.582355,1.095427519
10/31/2020,Prince of Wales-Hyder Census Area,Alaska,2198,34,1,yes,yes,55.49702772,-132.8424637,6374,5262.035989,1.211318207
10/31/2020,Sitka City and Borough,Alaska,2220,81,0,yes,yes,56.94758231,-135.0525219,8921,2870.381737,3.107948983
10/31/2020,Skagway Municipality,Alaska,2230,8,0,yes,yes,59.56170602,-135.3374675,1014,452.3195756,2.241777837
10/31/2020,Southeast Fairbanks Census Area,Alaska,2240,86,1,yes,yes,63.87691391,-143.2068104,6970,24767.59898,0.281416055
10/31/2020,Valdez-Cordova Census Area,Alaska,2261,170,1,yes,yes,61.62570433,-144.3063895,9522,34238.26717,0.278109869
10/31/2020,Wrangell City and Borough,Alaska,2275,19,0,yes,yes,56.32884265,-131.9381902,2401,2541.48961,0.944721549
10/31/2020,Yukon-Koyukuk Census Area,Alaska,2290,120,2,yes,yes,65.50873343,-151.3915425,5600,145492.9107,0.038489848
10/31/2020,Apache,Arizona,4001,4003,171,yes,yes,35.39553039,-109.4888332,72346,11197.45951,6.460929815
10/31/2020,Cochise,Arizona,4003,2216,75,yes,yes,31.87961343,-109.7511763,128177,6164.572345,20.79252101
10/31/2020,Coconino,Arizona,4005,5375,149,yes,yes,35.83874572,-111.7705113,138064,18618.65627,7.415357908
10/31/2020,Gila,Arizona,4007,1983,72,yes,yes,33.79975251,-110.8117163,53179,4757.990896,11.17677632
10/31/2020,Graham,Arizona,4009,1246,29,yes,yes,32.93270473,-109.8874085,37529,4622.702768,8.118410784
10/31/2020,Greenlee,Arizona,4011,102,2,yes,yes,33.21522675,-109.2401435,9224,1841.977233,5.007662328
10/31/2020,La Paz,Arizona,4012,627,17,yes,yes,33.72928687,-113.9813065,20304,4499.625203,4.512375827
10/31/2020,Maricopa,Arizona,4013,158765,3606,yes,yes,33.34881254,-112.4913064,4088549,9199.187657,444.4467438
10/31/2020,Mohave,Arizona,4015,4440,234,yes,yes,35.70410309,-113.7579647,203629,13311.08537,15.2977007
10/31/2020,Navajo,Arizona,4017,6494,241,yes,yes,35.39966398,-110.3214125,108209,9949.88494,10.87540214
10/31/2020,Pima,Arizona,4019,28598,641,yes,yes,32.09742991,-111.7899057,1003338,9187.21027,109.2103011
10/31/2020,Pinal,Arizona,4021,12117,228,yes,yes,32.90439693,-111.3446816,397604,5365.845844,74.09903518
10/31/2020,Santa Cruz,Arizona,4023,3044,65,yes,yes,31.5260312,-110.8466007,46547,1236.921483,37.6313296
10/31/2020,Yavapai,Arizona,4025,3022,91,yes,yes,34.59990128,-112.5539127,218586,8123.507444,26.90783526
10/31/2020,Yuma,Arizona,4027,13930,358,yes,yes,32.76943011,-113.9055971,203292,5514.025225,36.86816649
10/31/2020,Arkansas,Arkansas,5001,709,16,no,no,34.29081529,-91.37491716,18569,988.8008691,18.77931197
10/31/2020,Ashley,Arkansas,5003,563,11,no,no,33.19121662,-91.76846303,20989,925.3482154,22.68227209
10/31/2020,Baxter,Arkansas,5005,749,11,no,no,36.28721474,-92.33695365,40992,554.2834069,73.95494704
10/31/2020,Benton,Arkansas,5007,8509,123,no,no,36.3387302,-94.25620568,245231,847.481654,289.364376
10/31/2020,Boone,Arkansas,5009,1088,35,no,no,36.30859684,-93.09154006,37301,590.3307803,63.18660867
10/31/2020,Bradley,Arkansas,5011,373,8,no,no,33.46642522,-92.16239583,11096,649.2361011,17.0908549
10/31/2020,Calhoun,Arkansas,5013,57,0,no,no,33.55803676,-92.50305009,5210,628.5640112,8.288734174
10/31/2020,Carroll,Arkansas,5015,1039,17,no,no,36.34102504,-93.53824639,27690,629.9793827,43.95381938
10/31/2020,Chicot,Arkansas,5017,1055,23,no,no,33.26721785,-91.29398408,11189,644.3098249,17.36586898
10/31/2020,Clark,Arkansas,5019,520,5,no,no,34.05098432,-93.17637293,22684,866.0738827,26.19176083
10/31/2020,Clay,Arkansas,5021,510,13,no,no,36.3682702,-90.41755555,15202,639.447615,23.77364407
10/31/2020,Cleburne,Arkansas,5023,475,15,no,no,35.53810667,-92.0267315,25587,553.690253,46.21175804
10/31/2020,Cleveland,Arkansas,5025,254,13,no,no,33.89837361,-92.18519232,8421,597.7834076,14.08704205
10/31/2020,Columbia,Arkansas,5027,745,21,no,no,33.2142959,-93.22732085,24168,766.067152,31.54814815
10/31/2020,Conway,Arkansas,5029,359,3,no,no,35.26225009,-92.70130274,21060,552.2565049,38.13445349
10/31/2020,Craighead,Arkansas,5031,4821,48,no,no,35.83079712,-90.63283948,102884,707.2797112,145.4643734
10/31/2020,Crawford,Arkansas,5033,2148,29,no,no,35.58909134,-94.24282934,61927,591.1771707,104.7520152
10/31/2020,Crittenden,Arkansas,5035,2513,53,no,no,35.20794893,-90.30884392,49511,610.3294848,81.12175675
10/31/2020,Cross,Arkansas,5037,612,22,no,no,35.2957176,-90.77122099,17329,616.3803324,28.1141352
10/31/2020,Dallas,Arkansas,5039,181,6,no,no,33.9698172,-92.65445049,7738,667.3860009,11.59448953
10/31/2020,Desha,Arkansas,5041,424,7,no,no,33.83329066,-91.25398866,12234,768.1450186,15.92668012
10/31/2020,Drew,Arkansas,5043,440,7,no,no,33.58945056,-91.72000352,18688,828.3535208,22.56041597
10/31/2020,Faulkner,Arkansas,5045,3500,38,no,no,35.14698891,-92.33204986,120417,647.9121117,185.8539111
10/31/2020,Franklin,Arkansas,5047,569,2,no,no,35.51232578,-93.89064485,17799,608.857718,29.23343086
10/31/2020,Fulton,Arkansas,5049,343,10,no,no,36.38166856,-91.81822275,12186,618.1931145,19.71228685
10/31/2020,Garland,Arkansas,5051,2620,68,no,no,34.57667395,-93.15041723,97119,677.8139483,143.2826814
10/31/2020,Grant,Arkansas,5053,379,4,no,no,34.29000541,-92.42361729,18046,631.8109691,28.56234045
10/31/2020,Greene,Arkansas,5055,1628,20,no,no,36.11757281,-90.55898482,43745,577.6880572,75.72425889
10/31/2020,Hempstead,Arkansas,5057,584,5,no,no,33.73532953,-93.66848457,22208,727.5199653,30.52562274
10/31/2020,Hot Spring,Arkansas,5059,2275,37,no,no,34.31763535,-92.94594759,33440,615.2069939,54.35568895
10/31/2020,Howard,Arkansas,5061,617,14,no,no,34.08877645,-93.99348963,13487,588.5662567,22.91500718
10/31/2020,Independence,Arkansas,5063,1493,57,no,no,35.74157916,-91.56971501,37030,763.953374,48.47154455
10/31/2020,Izard,Arkansas,5065,621,2,no,no,36.0948823,-91.91341943,13461,580.5757152,23.18560637
10/31/2020,Jackson,Arkansas,5067,899,6,no,no,35.59928058,-91.21455819,17495,633.9365402,27.59739957
10/31/2020,Jefferson,Arkansas,5069,4289,102,no,no,34.26878932,-91.9315192,72385,870.7451459,83.1299495
10/31/2020,Johnson,Arkansas,5071,1055,8,no,no,35.57007496,-93.45990191,26025,659.8897336,39.43840717
10/31/2020,Lafayette,Arkansas,5073,192,3,no,no,33.24095137,-93.60706141,7127,528.2949183,13.4905708
10/31/2020,Lawrence,Arkansas,5075,873,20,no,no,36.04126204,-91.10709315,16915,587.617091,28.78575225
10/31/2020,Lee,Arkansas,5077,1113,18,no,no,34.78066369,-90.78214918,9781,602.6209556,16.23076647
10/31/2020,Lincoln,Arkansas,5079,2335,18,no,no,33.95744928,-91.73333546,13935,561.5615512,24.81473308
10/31/2020,Little River,Arkansas,5081,478,37,no,no,33.70051747,-94.2343535,12616,532.2561615,23.70287263
10/31/2020,Logan,Arkansas,5083,611,5,no,no,35.2152782,-93.71633143,21935,708.1192603,30.97642054
10/31/2020,Lonoke,Arkansas,5085,1865,30,no,no,34.75428466,-91.88866978,71279,770.9295557,92.45851255
10/31/2020,Madison,Arkansas,5087,442,6,no,no,36.01096139,-93.72456025,15761,834.2528153,18.89235458
10/31/2020,Marion,Arkansas,5089,176,2,no,no,36.2683886,-92.68423629,16404,597.0084306,27.47699891
10/31/2020,Miller,Arkansas,5091,1583,21,no,no,33.31209853,-93.89155929,43666,625.5873037,69.80000991
10/31/2020,Mississippi,Arkansas,5093,2391,69,no,no,35.76383677,-90.0542096,44199,900.5752192,49.07863225
10/31/2020,Monroe,Arkansas,5095,227,2,no,no,34.67783738,-91.20390021,7542,607.1302625,12.42237534
10/31/2020,Montgomery,Arkansas,5097,186,8,no,no,34.53893095,-93.65942577,9100,779.8803749,11.6684562
10/31/2020,Nevada,Arkansas,5099,331,14,no,no,33.66396355,-93.30720165,8668,617.8363945,14.02960408
10/31/2020,Newton,Arkansas,5101,322,20,no,no,35.91997852,-93.21787349,7988,820.9054422,9.730718777
10/31/2020,Ouachita,Arkansas,5103,395,9,no,no,33.59336335,-92.88194267,24728,732.7830538,33.74532186
10/31/2020,Perry,Arkansas,5105,150,1,no,no,34.94737749,-92.9314544,10246,551.5621322,18.57632967
10/31/2020,Phillips,Arkansas,5107,777,16,no,no,34.42824803,-90.84806393,19929,695.6244127,28.64908079
10/31/2020,Pike,Arkansas,5109,274,1,no,no,34.16367064,-93.65648224,11017,600.6188268,18.34274836
10/31/2020,Poinsett,Arkansas,5111,1166,21,no,no,35.57402831,-90.66299621,24131,758.3606695,31.81995186
10/31/2020,Polk,Arkansas,5113,370,5,no,no,34.48586968,-94.2280725,20290,857.6840407,23.65673026
10/31/2020,Pope,Arkansas,5115,2811,37,no,no,35.44763333,-93.03415953,63107,812.5544559,77.66494853
10/31/2020,Prairie,Arkansas,5117,240,4,no,no,34.82980539,-91.55278939,8334,647.9147978,12.86280237
10/31/2020,Pulaski,Arkansas,5119,12350,216,no,no,34.76993741,-92.31177928,391806,758.5722689,516.5045126
10/31/2020,Randolph,Arkansas,5121,686,25,no,no,36.34146787,-91.02771541,17584,652.2376835,26.9594972
10/31/2020,Saline,Arkansas,5125,3014,33,no,no,34.64659348,-92.67651867,115577,723.5667403,159.7323281
10/31/2020,Scott,Arkansas,5127,232,1,no,no,34.86078056,-94.06324484,10661,892.3000228,11.94777511
10/31/2020,Searcy,Arkansas,5129,208,1,no,no,35.91090174,-92.69950973,7938,666.094285,11.91723181
10/31/2020,Sebastian,Arkansas,5131,5045,96,no,no,35.19966342,-94.27418517,127351,531.8950913,239.4287936
10/31/2020,Sevier,Arkansas,5133,1394,16,no,no,33.99718145,-94.24118451,17193,565.1267055,30.42326585
10/31/2020,Sharp,Arkansas,5135,379,10,no,no,36.16114936,-91.47986522,17027,604.438674,28.16993805
10/31/2020,St. Francis,Arkansas,5123,1785,10,no,no,35.02202096,-90.74775444,27023,634.7946862,42.56966951
10/31/2020,Stone,Arkansas,5137,408,21,no,no,35.85988339,-92.15670818,12503,606.403856,20.61827259
10/31/2020,Union,Arkansas,5139,1161,50,no,no,33.17130767,-92.59727435,40334,1039.214814,38.81199485
10/31/2020,Van Buren,Arkansas,5141,215,3,no,no,35.58065184,-92.51569352,16892,709.7588131,23.79963403
10/31/2020,Washington,Arkansas,5143,11804,153,no,no,35.97906766,-94.21558367,219930,942.0152685,233.4675534
10/31/2020,White,Arkansas,5145,1580,33,no,no,35.25628453,-91.74555859,78823,1035.097054,76.15034717
10/31/2020,Woodruff,Arkansas,5147,131,0,no,no,35.18632745,-91.24306747,6873,586.7681747,11.71331421
10/31/2020,Yell,Arkansas,5149,1363,31,no,no,35.00260958,-93.41124566,21716,930.2162794,23.34510853
10/31/2020,Alameda,California,6001,23897,464,yes,yes,37.64695978,-121.8887673,1605217,739.0929693,2171.874266
10/31/2020,Alpine,California,6003,4,0,yes,yes,38.59720402,-119.8206798,1184,738.3400102,1.603597237
10/31/2020,Amador,California,6005,343,16,yes,yes,38.44639526,-120.6511029,36963,594.5714336,62.16746704
10/31/2020,Butte,California,6007,3160,53,yes,yes,39.66694537,-121.6006944,223877,1636.46373,136.8053541
10/31/2020,Calaveras,California,6009,354,21,yes,yes,38.20460285,-120.554136,44787,1020.012308,43.90829372
10/31/2020,Colusa,California,6011,557,6,yes,yes,39.17748899,-122.2369726,21361,1150.727882,18.5630333
10/31/2020,Contra Costa,California,6013,19074,246,yes,yes,37.91916707,-121.9279391,1107925,722.7562319,1532.916564
10/31/2020,Del Norte,California,6015,181,1,yes,yes,41.74313535,-123.897262,27628,1006.220506,27.45720231
10/31/2020,El Dorado,California,6017,1386,4,yes,yes,38.77873901,-120.5246746,183000,1707.864074,107.1513844
10/31/2020,Fresno,California,6019,31594,443,yes,yes,36.75820145,-119.6493183,963160,5958.780608,161.6370971
10/31/2020,Glenn,California,6021,674,3,yes,yes,39.59820691,-122.3920119,27976,1313.945406,21.2916
10/31/2020,Humboldt,California,6023,571,10,yes,yes,40.69930254,-123.8756432,135182,3567.965714,37.88769591
10/31/2020,Imperial,California,6025,13038,337,yes,yes,33.03951697,-115.3653628,178807,4176.577937,42.81184326
10/31/2020,Inyo,California,6027,241,15,yes,yes,36.51111008,-117.410742,18326,10180.93383,1.800031343
10/31/2020,Kern,California,6029,34378,424,yes,yes,35.34286892,-118.7299274,871337,8131.921875,107.1501932
10/31/2020,Kings,California,6031,8564,83,yes,yes,36.07535521,-119.8155527,150261,1389.420267,108.146544
10/31/2020,Lake,California,6033,720,17,yes,yes,39.0996221,-122.7532032,64076,1256.487216,50.99614162
10/31/2020,Lassen,California,6035,777,1,yes,yes,40.6735944,-120.5943287,31945,4541.178445,7.034517666
10/31/2020,Los Angeles,California,6037,307618,7071,yes,yes,34.35892237,-118.2170487,10057155,4058.183382,2478.240645
10/31/2020,Madera,California,6039,5094,76,yes,yes,37.21798434,-119.762688,153366,2137.112508,71.76318486
10/31/2020,Marin,California,6041,7145,127,yes,yes,38.07386608,-122.7240858,259358,520.4891629,498.296638
10/31/2020,Mariposa,California,6043,81,2,yes,yes,37.58151325,-119.905438,17645,1448.817046,12.17890144
10/31/2020,Mendocino,California,6045,1165,21,yes,yes,39.44023217,-123.391486,87409,3506.355092,24.92873588
10/31/2020,Merced,California,6047,9674,156,yes,yes,37.19189532,-120.7176666,265001,1935.21091,136.9364955
10/31/2020,Modoc,California,6049,34,0,yes,yes,41.58985266,-120.7249599,9033,3915.443251,2.307018496
10/31/2020,Mono,California,6051,193,2,yes,yes,37.93909205,-118.8868544,14051,3048.985528,4.608418068
10/31/2020,Monterey,California,6053,11752,96,yes,yes,36.21716427,-121.2392169,430201,3280.581059,131.1356105
10/31/2020,Napa,California,6055,2029,16,yes,yes,38.50649013,-122.3305314,140823,748.3297527,188.183083
10/31/2020,Nevada,California,6057,642,9,yes,yes,39.30137435,-120.7684634,98639,957.7669996,102.988514
10/31/2020,Orange,California,6059,61836,1483,yes,yes,33.70297871,-117.7610909,3132211,790.6219527,3961.705072
10/31/2020,Placer,California,6061,4353,59,yes,yes,39.06346828,-120.7175605,370571,1407.084279,263.3609127
10/31/2020,Plumas,California,6063,80,0,yes,yes,40.00463851,-120.8385499,18754,2553.061248,7.345691379
10/31/2020,Riverside,California,6065,68050,1319,yes,yes,33.74365424,-115.9938274,2323892,7206.287554,322.4811642
10/31/2020,Sacramento,California,6067,26184,500,yes,yes,38.44931828,-121.344255,1479300,964.9397929,1533.049016
10/31/2020,San Benito,California,6069,1464,15,yes,yes,36.60568774,-121.0749746,58051,1388.714412,41.80197131
10/31/2020,San Bernardino,California,6071,64952,1078,yes,yes,34.84138606,-116.1784195,2106754,20057.27325,105.0369097
10/31/2020,San Diego,California,6073,56813,891,yes,yes,33.03414184,-116.735305,3253356,4206.639132,773.3860447
10/31/2020,San Francisco,California,6075,12402,148,yes,yes,37.75512993,-122.4408833,850282,46.89428366,18131.89015
10/31/2020,San Joaquin,California,6077,22106,494,yes,yes,37.93476138,-121.2714109,714860,1392.390607,513.4047848
10/31/2020,San Luis Obispo,California,6079,4298,32,yes,yes,35.38708616,-120.4045261,278680,3300.647131,84.43192771
10/31/2020,San Mateo,California,6081,11371,161,yes,yes,37.42289767,-122.3290244,754748,448.5188482,1682.756484
10/31/2020,Santa Barbara,California,6083,9944,128,yes,yes,34.72481836,-120.0222849,439395,2735.146799,160.6476845
10/31/2020,Santa Clara,California,6085,24986,407,yes,yes,37.2317948,-121.6951413,1885056,1291.206178,1459.918666
10/31/2020,Santa Cruz,California,6087,2884,26,yes,yes,37.05618382,-122.0018431,270931,445.162992,608.6107894
10/31/2020,Shasta,California,6089,2048,31,yes,yes,40.76371776,-122.0405144,179228,3775.374644,47.47290453
10/31/2020,Sierra,California,6091,6,0,yes,yes,39.58032926,-120.5160229,2931,953.1679174,3.075009079
10/31/2020,Siskiyou,California,6093,241,0,yes,yes,41.59264458,-122.540379,43668,6278.781012,6.954853166
10/31/2020,Solano,California,6095,7639,76,yes,yes,38.2699779,-121.9328652,429596,821.7718319,522.7679793
10/31/2020,Sonoma,California,6097,9686,136,yes,yes,38.52829211,-122.8874227,497776,1575.85121,315.8775377
10/31/2020,Stanislaus,California,6099,18725,401,yes,yes,37.55914007,-120.9977035,530561,1496.007316,354.6513405
10/31/2020,Sutter,California,6101,1912,12,yes,yes,39.03454902,-121.6948466,95406,602.4179617,158.3717719
10/31/2020,Tehama,California,6103,932,9,yes,yes,40.1256314,-122.2340736,63015,2949.711327,21.36310744
10/31/2020,Trinity,California,6105,30,0,yes,yes,40.65070694,-123.1126533,13180,3179.266263,4.145610626
10/31/2020,Tulare,California,6107,17852,293,yes,yes,36.22016766,-118.8004966,455769,4824.35078,94.47260797
10/31/2020,Tuolumne,California,6109,291,6,yes,yes,38.02759354,-119.954768,53864,2220.92978,24.25290547
10/31/2020,Ventura,California,6111,14578,166,yes,yes,34.47159502,-119.0782397,843110,1843.015615,457.4622121
10/31/2020,Yolo,California,6113,3292,60,yes,yes,38.68660977,-121.9015829,209671,1014.775152,206.6181849
10/31/2020,Yuba,California,6115,1353,10,yes,yes,39.26901406,-121.351276,73897,632.0378342,116.9186337
10/31/2020,Adams,Colorado,8001,15216,263,yes,yes,39.87363478,-104.3377819,479977,1167.291182,411.1887484
10/31/2020,Alamosa,Colorado,8003,356,9,yes,yes,37.57294141,-105.7883769,16353,722.5767157,22.631507
10/31/2020,Arapahoe,Colorado,8005,13718,402,yes,yes,39.64970709,-104.338357,617668,797.9290091,774.0889139
10/31/2020,Archuleta,Colorado,8007,68,0,yes,yes,37.19354205,-107.048296,12355,1350.089541,9.15124488
10/31/2020,Baca,Colorado,8009,36,0,yes,yes,37.31919086,-102.5604829,3648,2554.9916,1.427793344
10/31/2020,Bent,Colorado,8011,18,0,yes,yes,37.9551022,-103.0717326,5816,1512.86477,3.84436211
10/31/2020,Boulder,Colorado,8013,5937,88,yes,yes,40.09266391,-105.3581169,313961,726.3397129,432.2509074
10/31/2020,Broomfield,Colorado,8014,1071,42,yes,yes,39.95461521,-105.0527829,62449,33.00341865,1892.197916
10/31/2020,Chaffee,Colorado,8015,431,20,yes,yes,38.74702942,-106.1941435,18507,1013.407977,18.26214163
10/31/2020,Cheyenne,Colorado,8017,15,0,yes,yes,38.82795408,-102.6035231,2071,1778.275399,1.164611511
10/31/2020,Clear Creek,Colorado,8019,89,1,yes,yes,39.68918615,-105.6444126,9238,395.1965037,23.37571288
10/31/2020,Conejos,Colorado,8021,81,0,yes,yes,37.20071929,-106.1916194,8213,1287.427634,6.37938769
10/31/2020,Costilla,Colorado,8023,38,1,yes,yes,37.27813036,-105.4282453,3590,1227.592889,2.924422284
10/31/2020,Crowley,Colorado,8025,96,1,yes,yes,38.32659115,-103.7844805,5537,787.4243227,7.031786853
10/31/2020,Custer,Colorado,8027,24,0,yes,yes,38.10869379,-105.367524,4375,738.625465,5.923164319
10/31/2020,Delta,Colorado,8029,215,3,yes,yes,38.86136108,-107.8629129,30221,1142.086356,26.46122147
10/31/2020,Denver,Colorado,8031,19538,459,yes,yes,39.76151732,-104.8763451,663303,153.3342046,4325.864549
10/31/2020,Dolores,Colorado,8033,3,0,yes,yes,37.75171182,-108.5173911,1789,1067.169912,1.676396588
10/31/2020,Douglas,Colorado,8035,4394,65,yes,yes,39.32971281,-104.9295691,314238,840.2632486,373.9756565
10/31/2020,Eagle,Colorado,8037,1510,10,yes,yes,39.62785185,-106.6953769,52894,1684.514718,31.40014121
10/31/2020,El Paso,Colorado,8041,11122,205,yes,yes,38.83210978,-104.5254705,665171,2126.840045,312.750835
10/31/2020,Elbert,Colorado,8039,242,3,yes,yes,39.28658347,-104.1359569,24225,1850.841284,13.08864256
10/31/2020,Fremont,Colorado,8043,809,2,yes,yes,38.47296656,-105.4396703,46835,1533.081526,30.54958213
10/31/2020,Garfield,Colorado,8045,1230,5,yes,yes,39.59932158,-107.9040937,57495,2947.533649,19.50613864
10/31/2020,Gilpin,Colorado,8047,30,0,yes,yes,39.8575685,-105.5225263,5708,149.8959829,38.07973962
10/31/2020,Grand,Colorado,8049,158,1,yes,yes,40.10263694,-106.1183409,14490,1846.440347,7.847532156
10/31/2020,Gunnison,Colorado,8051,319,7,yes,yes,38.66677479,-107.0316322,15889,3239.140204,4.905314065
10/31/2020,Hinsdale,Colorado,8053,4,0,yes,yes,37.8212908,-107.3003123,856,1117.230334,0.766180414
10/31/2020,Huerfano,Colorado,8055,35,2,yes,yes,37.6846832,-104.9606295,6521,1591.032264,4.09859696
10/31/2020,Jackson,Colorado,8057,9,0,yes,yes,40.66645212,-106.3428006,1306,1613.724996,0.80930766
10/31/2020,Jefferson,Colorado,8059,9303,318,yes,yes,39.58642013,-105.2505355,558810,764.2126052,731.2232175
10/31/2020,Kiowa,Colorado,8061,6,0,yes,yes,38.43268187,-102.7402585,1465,1767.808009,0.828709901
10/31/2020,Kit Carson,Colorado,8063,139,3,yes,yes,39.30549694,-102.6029531,8174,2160.820595,3.782822146
10/31/2020,La Plata,Colorado,8067,392,2,yes,yes,37.28655976,-107.8433396,53994,1689.780947,31.95325412
10/31/2020,Lake,Colorado,8065,143,0,yes,yes,39.20249856,-106.3447816,7401,376.9189006,19.63552368
10/31/2020,Larimer,Colorado,8069,4440,57,yes,yes,40.66639269,-105.4611559,325228,2596.180895,125.2717022
10/31/2020,Las Animas,Colorado,8071,85,1,yes,yes,37.31580002,-104.0387496,14322,4772.935993,3.000668775
10/31/2020,Lincoln,Colorado,8073,25,0,yes,yes,38.98809206,-103.5139533,5515,2577.678223,2.139522285
10/31/2020,Logan,Colorado,8075,1306,13,yes,yes,40.72467947,-103.1101342,21862,1838.597648,11.89058412
10/31/2020,Mesa,Colorado,8077,1639,15,yes,yes,39.01830323,-108.4664449,148166,3328.937241,44.50849904
10/31/2020,Mineral,Colorado,8079,21,0,yes,yes,37.66894829,-106.9241323,793,875.760063,0.905499158
10/31/2020,Moffat,Colorado,8081,77,1,yes,yes,40.61839152,-108.2074433,13034,4743.2414,2.7479099
10/31/2020,Montezuma,Colorado,8083,224,5,yes,yes,37.33856848,-108.5965869,26006,2029.277915,12.81539596
10/31/2020,Montrose,Colorado,8085,492,13,yes,yes,38.4022261,-108.2692637,40866,2240.945137,18.23605555
10/31/2020,Morgan,Colorado,8087,902,48,yes,yes,40.26264248,-103.809745,28288,1280.484699,22.09163453
10/31/2020,Otero,Colorado,8089,176,7,yes,yes,37.90258331,-103.7164939,18440,1261.96069,14.61218257
10/31/2020,Ouray,Colorado,8091,40,2,yes,yes,38.15547386,-107.7692755,4651,541.5927461,8.587633482
10/31/2020,Park,Colorado,8093,108,1,yes,yes,39.1193262,-105.7171227,16440,2193.897245,7.493514129
10/31/2020,Phillips,Colorado,8095,60,0,yes,yes,40.59397949,-102.3576116,4347,687.9275755,6.318979141
10/31/2020,Pitkin,Colorado,8097,298,2,yes,yes,39.21709285,-106.9166112,17543,970.7009421,18.07250744
10/31/2020,Prowers,Colorado,8099,198,4,yes,yes,37.9552017,-102.3933691,12121,1638.393703,7.398099723
10/31/2020,Pueblo,Colorado,8101,2331,45,yes,yes,38.1735152,-104.5127159,162158,2386.071783,67.96023539
10/31/2020,Rio Blanco,Colorado,8103,31,0,yes,yes,39.97986024,-108.2170629,6658,3220.969106,2.067079745
10/31/2020,Rio Grande,Colorado,8105,131,3,yes,yes,37.58252545,-106.3832401,11623,911.9559718,12.74513283
10/31/2020,Routt,Colorado,8107,230,9,yes,yes,40.48515,-106.991264,23980,2362.018668,10.15233297
10/31/2020,Saguache,Colorado,8109,146,2,yes,yes,38.08053362,-106.2815209,6255,3168.564484,1.97408007
10/31/2020,San Juan,Colorado,8111,10,0,yes,yes,37.76403446,-107.676167,552,387.5153654,1.424459646
10/31/2020,San Miguel,Colorado,8113,109,0,yes,yes,38.00381106,-108.4058608,7767,1286.725889,6.036250661
10/31/2020,Sedgwick,Colorado,8115,46,1,yes,yes,40.87592292,-102.3518335,2367,548.0405642,4.319023362
10/31/2020,Summit,Colorado,8117,753,4,yes,yes,39.63418664,-106.1163785,29269,608.3377703,48.11307374
10/31/2020,Teller,Colorado,8119,255,4,yes,yes,38.88215764,-105.1617939,23472,557.0425724,42.13681532
10/31/2020,Washington,Colorado,8121,106,0,yes,yes,39.97102273,-103.2012572,4814,2518.082644,1.911772042
10/31/2020,Weld,Colorado,8123,6583,159,yes,yes,40.55486215,-104.3924581,278065,3987.165971,69.74001134
10/31/2020,Yuma,Colorado,8125,227,1,yes,yes,40.00294318,-102.424258,10150,2364.397323,4.29284871
10/31/2020,Fairfield,Connecticut,9001,24155,1436,yes,yes,41.27110205,-73.38917933,941618,624.9695826,1506.662126
10/31/2020,Hartford,Connecticut,9003,18184,1481,yes,yes,41.80640958,-72.73287561,895699,735.1326122,1218.418262
10/31/2020,Litchfield,Connecticut,9005,2305,144,yes,yes,41.79248804,-73.24533261,185141,920.4896106,201.1331773
10/31/2020,Middlesex,Connecticut,9007,2018,197,yes,yes,41.46319466,-72.53514528,164438,369.3032468,445.265514
10/31/2020,New Haven,Connecticut,9009,17352,1128,yes,yes,41.41046457,-72.93216693,860874,604.5014681,1424.105722
10/31/2020,New London,Connecticut,9011,3803,143,yes,yes,41.48662241,-72.10147458,272033,665.1420934,408.9847909
10/31/2020,Tolland,Connecticut,9013,1780,68,yes,yes,41.85505163,-72.33649677,151689,410.3227619,369.6821481
10/31/2020,Windham,Connecticut,9015,1469,19,yes,yes,41.83002914,-71.98745286,117078,512.8763755,228.2772333
10/31/2020,Kent,Delaware,10001,3569,120,yes,yes,39.08617344,-75.56842277,171474,586.3217145,292.4571882
10/31/2020,New Castle,Delaware,10003,13192,353,yes,yes,39.57675791,-75.65296409,551997,426.3181438,1294.800627
10/31/2020,Sussex,Delaware,10005,8099,235,yes,yes,38.66056015,-75.39003971,211224,936.092126,225.6444576
10/31/2020,District of Columbia,District of Columbia,11001,17266,646,yes,yes,38.90474172,-77.01629613,659009,61.14504014,10777.79978
10/31/2020,Alachua,Florida,12001,10582,76,yes,yes,29.67475722,-82.35772834,256581,875.0533593,293.2175476
10/31/2020,Baker,Florida,12003,1795,23,yes,yes,30.33110366,-82.28463196,27312,585.2298432,46.66884356
10/31/2020,Bay,Florida,12005,6866,134,yes,yes,30.2652218,-85.6202513,178361,758.4595622,235.1621746
10/31/2020,Bradford,Florida,12007,1239,15,yes,yes,29.949958,-82.16877347,26919,293.9635365,91.57258183
10/31/2020,Brevard,Florida,12009,11743,375,yes,yes,28.29372882,-80.73227567,560683,1015.39163,552.1839886
10/31/2020,Broward,Florida,12011,86235,1523,yes,yes,26.1523217,-80.48711278,1863780,1206.955612,1544.199291
10/31/2020,Calhoun,Florida,12013,727,14,yes,yes,30.40602775,-85.19720185,14550,567.3341112,25.64626331
10/31/2020,Charlotte,Florida,12015,3715,159,yes,yes,26.90550273,-81.91226003,169642,681.1241791,249.0617793
10/31/2020,Citrus,Florida,12017,3275,135,yes,yes,28.84908142,-82.47864916,140453,581.8940933,241.3721012
10/31/2020,Clay,Florida,12019,6155,127,yes,yes,29.98307539,-81.85788647,200346,604.8076458,331.2557329
10/31/2020,Collier,Florida,12021,14587,256,yes,yes,26.11071905,-81.34757403,348236,1998.769498,174.2251923
10/31/2020,Columbia,Florida,12023,4284,79,yes,yes,30.22425752,-82.62154309,68198,797.5431055,85.51011165
10/31/2020,DeSoto,Florida,12027,1676,29,yes,yes,27.18636209,-81.80941659,35134,637.0598212,55.15023681
10/31/2020,Dixie,Florida,12029,903,11,yes,yes,29.60816201,-83.158845,16084,705.1042083,22.81081266
10/31/2020,Duval,Florida,12031,35256,523,yes,yes,30.33157911,-81.67084623,900890,762.6342998,1181.287021
10/31/2020,Escambia,Florida,12033,13642,272,yes,yes,30.66893228,-87.36278789,309574,656.8880103,471.2736344
10/31/2020,Flagler,Florida,12035,2157,39,yes,yes,29.46143906,-81.31356089,102917,485.4713891,211.9939554
10/31/2020,Franklin,Florida,12037,773,4,yes,yes,29.88969964,-84.80189256,11705,545.144676,21.47136442
10/31/2020,Gadsden,Florida,12039,3067,56,yes,yes,30.57948324,-84.61362799,46153,516.2929797,89.39304196
10/31/2020,Gilchrist,Florida,12041,611,18,yes,yes,29.72583938,-82.80038898,17033,349.6947131,48.70819993
10/31/2020,Glades,Florida,12043,610,6,yes,yes,26.95647266,-81.18899774,13420,806.6747016,16.63619793
10/31/2020,Gulf,Florida,12045,943,15,yes,yes,29.9555394,-85.22659646,15851,553.5872881,28.63324419
10/31/2020,Hamilton,Florida,12047,907,10,yes,yes,30.49639354,-82.94793846,14362,513.7819074,27.95349504
10/31/2020,Hardee,Florida,12049,1617,16,yes,yes,27.4927008,-81.80993935,27302,637.7894999,42.80722715
10/31/2020,Hendry,Florida,12051,2238,44,yes,yes,26.55347682,-81.16584289,38376,1156.302906,33.18853548
10/31/2020,Hernando,Florida,12053,3772,175,yes,yes,28.55363413,-82.42503269,176797,472.8252135,373.916185
10/31/2020,Highlands,Florida,12055,2679,118,yes,yes,27.343327,-81.34105479,98862,1016.585831,97.24904378
10/31/2020,Hillsborough,Florida,12057,48287,816,yes,yes,27.92935635,-82.30878767,1323059,1020.313538,1296.718068
10/31/2020,Holmes,Florida,12059,934,12,yes,yes,30.86791949,-85.81402983,19569,478.754978,40.87477081
10/31/2020,Indian River,Florida,12061,3896,125,yes,yes,27.69431704,-80.60624797,145342,502.7811368,289.0760798
10/31/2020,Jackson,Florida,12063,3147,83,yes,yes,30.79543087,-85.21549753,48721,918.1763696,53.06279013
10/31/2020,Jefferson,Florida,12065,680,9,yes,yes,30.43750895,-83.89528595,14082,598.0937962,23.54480199
10/31/2020,Lafayette,Florida,12067,1279,16,yes,yes,29.98550949,-83.18109609,8742,543.4107375,16.08727873
10/31/2020,Lake,Florida,12069,8680,227,yes,yes,28.76154967,-81.71125649,317586,940.875556,337.5430448
10/31/2020,Lee,Florida,12071,23588,518,yes,yes,26.57912108,-81.8199654,680970,784.083096,868.4921324
10/31/2020,Leon,Florida,12073,12393,118,yes,yes,30.4580485,-84.27789594,284788,666.8643801,427.0553481
10/31/2020,Levy,Florida,12075,1151,12,yes,yes,29.31864892,-82.74321919,39707,1118.231034,35.50876233
10/31/2020,Liberty,Florida,12077,539,11,yes,yes,30.24138013,-84.88290276,8285,835.5629895,9.915470292
10/31/2020,Madison,Florida,12079,1083,25,yes,yes,30.44410874,-83.47013135,18560,696.1061483,26.6626003
10/31/2020,Manatee,Florida,12081,13463,330,yes,yes,27.47188867,-82.31528027,353411,743.1561295,475.5541749
10/31/2020,Marion,Florida,12083,10926,348,yes,yes,29.21020759,-82.05666012,340341,1588.030715,214.3163837
10/31/2020,Martin,Florida,12085,5407,167,yes,yes,27.07753048,-80.43147986,153592,543.726284,282.4803666
10/31/2020,Miami-Dade,Florida,12086,185890,3647,yes,yes,25.61588055,-80.56371485,2664418,1898.662311,1403.313262
10/31/2020,Monroe,Florida,12087,2304,25,yes,yes,25.50996694,-81.05411295,77150,983.014602,78.48306611
10/31/2020,Nassau,Florida,12089,2498,52,yes,yes,30.61060481,-81.80161907,77187,648.6384487,118.9984962
10/31/2020,Okaloosa,Florida,12091,6498,130,yes,yes,30.69129733,-86.59175968,195798,930.2616004,210.4762788
10/31/2020,Okeechobee,Florida,12093,1750,38,yes,yes,27.38643685,-80.88862694,39420,768.9033125,51.2678244
10/31/2020,Orange,Florida,12095,46433,559,yes,yes,28.51443253,-81.32352016,1256055,903.3144311,1390.495886
10/31/2020,Osceola,Florida,12097,14287,206,yes,yes,28.06268438,-81.1494788,311962,1327.664173,234.9705643
10/31/2020,Palm Beach,Florida,12099,52445,1588,yes,yes,26.64760885,-80.4654836,1398757,1969.892139,710.0678114
10/31/2020,Pasco,Florida,12101,10972,244,yes,yes,28.30930795,-82.39237963,488310,747.6435614,653.1320875
10/31/2020,Pinellas,Florida,12103,25986,823,yes,yes,27.9192951,-82.72536699,939548,273.7933464,3431.595444
10/31/2020,Polk,Florida,12105,23164,623,yes,yes,27.9488873,-81.69758385,637691,1796.75633,354.9123437
10/31/2020,Putnam,Florida,12107,2402,50,yes,yes,29.60865605,-81.74431327,72304,727.8792236,99.33516119
10/31/2020,Santa Rosa,Florida,12113,5994,88,yes,yes,30.70044735,-87.0219824,163903,1011.75952,161.9979815
10/31/2020,Sarasota,Florida,12115,9745,343,yes,yes,27.18447165,-82.33150488,398011,555.7900792,716.1174964
10/31/2020,Seminole,Florida,12117,10411,241,yes,yes,28.7169797,-81.23630141,442905,309.479572,1431.128385
10/31/2020,St. Johns,Florida,12109,6599,84,yes,yes,29.90164916,-81.44067155,218362,600.6948263,363.5156995
10/31/2020,St. Lucie,Florida,12111,9129,336,yes,yes,27.37726182,-80.47202897,293136,571.6769657,512.7651062
10/31/2020,Sumter,Florida,12119,2945,86,yes,yes,28.7047521,-82.08096956,113589,547.6445374,207.4137369
10/31/2020,Suwannee,Florida,12121,3015,78,yes,yes,30.19560883,-82.99149502,43653,688.5515673,63.3983017
10/31/2020,Taylor,Florida,12123,1488,18,yes,yes,30.04700202,-83.60352957,22582,1043.301267,21.6447547
10/31/2020,Union,Florida,12125,1139,45,yes,yes,30.04386081,-82.37143637,15159,243.5559358,62.24032253
10/31/2020,Volusia,Florida,12127,12927,322,yes,yes,29.05842439,-81.18192653,510806,1101.178555,463.872092
10/31/2020,Wakulla,Florida,12129,1327,11,yes,yes,30.16733013,-84.40066587,31314,606.4215611,51.63734605
10/31/2020,Walton,Florida,12131,2496,30,yes,yes,30.64358623,-86.16969594,61528,1037.719373,59.29155954
10/31/2020,Washington,Florida,12133,1248,24,yes,yes,30.61060698,-85.66533681,24627,584.1834176,42.15628048
10/31/2020,Appling,Georgia,13001,1264,38,yes,yes,31.74922888,-82.28891517,18410,507.1236105,36.30278618
10/31/2020,Atkinson,Georgia,13003,546,6,yes,yes,31.29713988,-82.88007269,8268,339.3010024,24.3677441
10/31/2020,Bacon,Georgia,13005,708,16,yes,yes,31.55367462,-82.4527126,11251,284.0361954,39.6111488
10/31/2020,Baker,Georgia,13007,106,6,yes,yes,31.32614485,-84.44470651,3250,341.945061,9.504450775
10/31/2020,Baldwin,Georgia,13009,2415,65,yes,yes,33.06927158,-83.24955971,45808,258.6197494,177.1249107
10/31/2020,Banks,Georgia,13011,585,8,yes,yes,34.35415317,-83.49736719,18336,232.0906512,79.00361304
10/31/2020,Barrow,Georgia,13013,2801,51,yes,yes,33.9931962,-83.7127357,73340,160.367219,457.325384
10/31/2020,Bartow,Georgia,13015,3996,96,yes,yes,34.23785753,-84.84049254,101942,459.5459448,221.8320086
10/31/2020,Ben Hill,Georgia,13017,943,34,yes,yes,31.75978063,-83.22049755,17405,250.120527,69.58645182
10/31/2020,Berrien,Georgia,13019,594,14,yes,yes,31.27598846,-83.22964337,18986,451.9458026,42.00946195
10/31/2020,Bibb,Georgia,13021,6831,200,yes,yes,32.80650012,-83.69741063,154194,249.3117626,618.4786406
10/31/2020,Bleckley,Georgia,13023,640,27,yes,yes,32.43443282,-83.32785677,12835,215.8697046,59.457162
10/31/2020,Brantley,Georgia,13025,668,13,yes,yes,31.1968818,-81.98190818,18403,442.3633402,41.60154861
10/31/2020,Brooks,Georgia,13027,595,26,yes,yes,30.84222226,-83.58048574,15645,493.0941492,31.72822072
10/31/2020,Bryan,Georgia,13029,1351,16,yes,yes,32.01447669,-81.44364126,34104,436.3654603,78.15467333
10/31/2020,Bulloch,Georgia,13031,3496,33,yes,yes,32.39681407,-81.74318756,73141,673.0458388,108.6716473
10/31/2020,Burke,Georgia,13033,1078,12,yes,yes,33.06108981,-82.00090941,22838,826.9671382,27.61657501
10/31/2020,Butts,Georgia,13035,855,44,yes,yes,33.28788771,-83.9571893,23479,183.7604264,127.7696208
10/31/2020,Calhoun,Georgia,13037,292,10,yes,yes,31.52923062,-84.62453621,6443,280.3669086,22.98060078
10/31/2020,Camden,Georgia,13039,1491,18,yes,yes,30.93057184,-81.66998613,52092,613.196262,84.95159418
10/31/2020,Candler,Georgia,13043,573,25,yes,yes,32.40344757,-82.07366513,10962,243.0524746,45.10137169
10/31/2020,Carroll,Georgia,13045,4151,77,yes,yes,33.58279282,-85.07977275,113756,499.0338906,227.952454
10/31/2020,Catoosa,Georgia,13047,1504,23,yes,yes,34.9036347,-85.13825208,65645,162.1626207,404.8096887
10/31/2020,Charlton,Georgia,13049,727,10,yes,yes,30.78172981,-82.13793978,12968,773.6197762,16.76275659
10/31/2020,Chatham,Georgia,13051,9637,191,yes,yes,32.00422166,-81.13283839,282613,429.0592722,658.680556
10/31/2020,Chattahoochee,Georgia,13053,1826,1,yes,yes,32.34699225,-84.78702961,11882,248.7356617,47.76958767
10/31/2020,Chattooga,Georgia,13055,1010,29,yes,yes,34.47500681,-85.3453453,25046,313.3265626,79.93576986
10/31/2020,Cherokee,Georgia,13057,7913,102,yes,yes,34.24395283,-84.47621098,230629,421.1095838,547.6697964
10/31/2020,Clarke,Georgia,13059,6842,50,yes,yes,33.95117919,-83.36733923,122037,119.2045338,1023.761397
10/31/2020,Clay,Georgia,13061,131,3,yes,yes,31.62624266,-84.98009336,3068,195.3814352,15.70261779
10/31/2020,Clayton,Georgia,13063,8877,179,yes,yes,33.54189323,-84.35764729,270269,141.6462048,1908.05677
10/31/2020,Clinch,Georgia,13065,492,13,yes,yes,30.91500069,-82.70626004,6814,800.2222233,8.515134673
10/31/2020,Cobb,Georgia,13067,24255,459,yes,yes,33.94146806,-84.57668321,728388,339.6901184,2144.271972
10/31/2020,Coffee,Georgia,13069,2534,64,yes,yes,31.54930274,-82.84917034,43042,575.4472258,74.79747589
10/31/2020,Colquitt,Georgia,13071,2476,40,yes,yes,31.18837839,-83.76881879,46002,546.9854451,84.1009581
10/31/2020,Columbia,Georgia,13073,4956,66,yes,yes,33.54412687,-82.26405321,139904,290.0890817,482.2794405
10/31/2020,Cook,Georgia,13075,661,16,yes,yes,31.15399987,-83.43046694,17103,227.200491,75.27712605
10/31/2020,Coweta,Georgia,13077,3899,63,yes,yes,33.35347035,-84.76335699,135625,440.917387,307.597305
10/31/2020,Crawford,Georgia,13079,213,6,yes,yes,32.71450967,-83.98633625,12483,324.9131269,38.41950038
10/31/2020,Crisp,Georgia,13081,826,23,yes,yes,31.92293498,-83.76806667,23061,272.5890228,84.59988506
10/31/2020,Dade,Georgia,13083,385,6,yes,yes,34.85456015,-85.5045219,16356,173.9796176,94.01101248
10/31/2020,Dawson,Georgia,13085,953,11,yes,yes,34.44430217,-84.17062133,22939,210.8282716,108.8041932
10/31/2020,DeKalb,Georgia,13089,22550,403,yes,yes,33.77155067,-84.22642833,723902,267.6242488,2704.919316
10/31/2020,Decatur,Georgia,13087,1434,35,yes,yes,30.87834871,-84.57905499,27237,597.1394644,45.61246011
10/31/2020,Dodge,Georgia,13091,924,19,yes,yes,32.17221645,-83.16841424,20995,495.896023,42.33750429
10/31/2020,Dooly,Georgia,13093,430,18,yes,yes,32.15720517,-83.79876478,14089,391.9399213,35.94683581
10/31/2020,Dougherty,Georgia,13095,3486,191,yes,yes,31.53346541,-84.21637106,92326,328.6269729,280.9446808
10/31/2020,Douglas,Georgia,13097,4531,73,yes,yes,33.70184874,-84.76796112,138283,200.1139921,691.0211453
10/31/2020,Early,Georgia,13099,597,35,yes,yes,31.3228448,-84.90364522,10480,512.5936982,20.44504261
10/31/2020,Echols,Georgia,13101,257,2,yes,yes,30.71005622,-82.89396507,4025,414.8942617,9.701266978
10/31/2020,Effingham,Georgia,13103,1896,29,yes,yes,32.36729151,-81.3413562,55852,477.7039034,116.9176128
10/31/2020,Elbert,Georgia,13105,839,10,yes,yes,34.11679932,-82.84015006,19394,351.057272,55.2445471
10/31/2020,Emanuel,Georgia,13107,1276,39,yes,yes,32.58974932,-82.3017162,22723,680.6053692,33.38645422
10/31/2020,Evans,Georgia,13109,516,7,yes,yes,32.15676591,-81.88688279,10733,182.8632659,58.69412835
10/31/2020,Fannin,Georgia,13111,868,27,yes,yes,34.86409233,-84.31980508,24017,387.0709396,62.04805772
10/31/2020,Fayette,Georgia,13113,2463,57,yes,yes,33.41395731,-84.4941848,109495,194.3634016,563.3519432
10/31/2020,Floyd,Georgia,13115,4275,61,yes,yes,34.26319805,-85.21426099,96199,509.9231473,188.6539188
10/31/2020,Forsyth,Georgia,13117,5243,54,yes,yes,34.22554979,-84.12502457,203841,224.0969,909.6109762
10/31/2020,Franklin,Georgia,13119,986,18,yes,yes,34.37547215,-83.22915182,22188,261.507585,84.84648734
10/31/2020,Fulton,Georgia,13121,33719,628,yes,yes,33.79028096,-84.46700029,996757,526.7133221,1892.408941
10/31/2020,Gilmer,Georgia,13123,1132,22,yes,yes,34.6911959,-84.45563859,28956,426.2501898,67.93193456
10/31/2020,Glascock,Georgia,13125,60,2,yes,yes,33.22928927,-82.61070428,3053,143.739646,21.23979073
10/31/2020,Glynn,Georgia,13127,3859,104,yes,yes,31.2309024,-81.54072006,82623,419.7981262,196.8160286
10/31/2020,Gordon,Georgia,13129,2582,47,yes,yes,34.50336332,-84.8757061,56079,355.8079467,157.6103078
10/31/2020,Grady,Georgia,13131,915,25,yes,yes,30.87467171,-84.23444473,25145,454.5342613,55.32036227
10/31/2020,Greene,Georgia,13133,636,25,yes,yes,33.57883713,-83.16667649,16535,387.4347137,42.67815819
10/31/2020,Gwinnett,Georgia,13135,32947,450,yes,yes,33.96173529,-84.02360174,874242,430.4388707,2031.047983
10/31/2020,Habersham,Georgia,13137,1924,78,yes,yes,34.63103714,-83.53111213,43724,276.7404471,157.9964203
10/31/2020,Hall,Georgia,13139,10994,179,yes,yes,34.31690318,-83.81967134,190482,392.7839264,484.9536532
10/31/2020,Hancock,Georgia,13141,425,44,yes,yes,33.27045573,-83.00067636,8747,471.0668463,18.56848995
10/31/2020,Haralson,Georgia,13143,845,11,yes,yes,33.79423156,-85.2110049,28667,282.1653127,101.596471
10/31/2020,Harris,Georgia,13145,891,25,yes,yes,32.73604263,-84.90889879,32992,463.887068,71.12075821
10/31/2020,Hart,Georgia,13147,621,17,yes,yes,34.35084143,-82.96422458,25518,232.398156,109.8029367
10/31/2020,Heard,Georgia,13149,283,6,yes,yes,33.29704573,-85.12834047,11571,296.0317335,39.08702578
10/31/2020,Henry,Georgia,13151,6937,114,yes,yes,33.45300491,-84.15420345,214171,318.6107229,672.2027371
10/31/2020,Houston,Georgia,13153,3984,95,yes,yes,32.45901323,-83.66623171,149137,375.5505806,397.1156156
10/31/2020,Irwin,Georgia,13155,380,8,yes,yes,31.60224386,-83.2763668,9365,354.3618059,26.42779172
10/31/2020,Jackson,Georgia,13157,2571,42,yes,yes,34.13389133,-83.56636696,62131,339.6604325,182.9209235
10/31/2020,Jasper,Georgia,13159,361,4,yes,yes,33.31654316,-83.68797352,13571,368.1642212,36.86126793
10/31/2020,Jeff Davis,Georgia,13161,913,23,yes,yes,31.80561755,-82.63683175,14953,330.7699571,45.20664491
10/31/2020,Jefferson,Georgia,13163,893,33,yes,yes,33.05486678,-82.41818726,16201,526.4844845,30.77203693
10/31/2020,Jenkins,Georgia,13165,479,32,yes,yes,32.79245352,-81.96355283,9055,347.2792871,26.0741148
10/31/2020,Johnson,Georgia,13167,492,23,yes,yes,32.70146698,-82.66008316,9694,303.0102724,31.99231473
10/31/2020,Jones,Georgia,13169,682,17,yes,yes,33.02513142,-83.56049923,28701,393.9366602,72.85689021
10/31/2020,Lamar,Georgia,13171,520,20,yes,yes,33.07654181,-84.13947532,18195,183.4999076,99.1553633
10/31/2020,Lanier,Georgia,13173,362,7,yes,yes,31.03787883,-83.06276048,10382,185.2915784,56.03060911
10/31/2020,Laurens,Georgia,13175,2319,89,yes,yes,32.4636581,-82.92223685,47802,807.3016656,59.21206661
10/31/2020,Lee,Georgia,13177,830,30,yes,yes,31.77961747,-84.14100187,29134,355.8790586,81.86489004
10/31/2020,Liberty,Georgia,13179,1315,25,yes,yes,31.82809632,-81.49473354,63949,516.3286339,123.8532899
10/31/2020,Lincoln,Georgia,13181,251,7,yes,yes,33.7936502,-82.45115337,7712,210.3795616,36.65755333
10/31/2020,Long,Georgia,13183,295,4,yes,yes,31.75256042,-81.74569965,17243,400.4245201,43.0617985
10/31/2020,Lowndes,Georgia,13185,5253,87,yes,yes,30.83381929,-83.267734,113898,496.0864868,229.5930307
10/31/2020,Lumpkin,Georgia,13187,1078,15,yes,yes,34.57219447,-84.0026742,31094,282.9329502,109.8988293
10/31/2020,Macon,Georgia,13193,286,10,yes,yes,32.35768119,-84.04255798,13846,400.6403113,34.55967762
10/31/2020,Madison,Georgia,13195,891,11,yes,yes,34.12779136,-83.20904003,28362,282.3119306,100.4633419
10/31/2020,Marion,Georgia,13197,229,9,yes,yes,32.3534004,-84.52467335,8646,366.0162813,23.62190001
10/31/2020,McDuffie,Georgia,13189,768,16,yes,yes,33.4828646,-82.48137202,21558,257.4592372,83.73364357
10/31/2020,McIntosh,Georgia,13191,329,8,yes,yes,31.49674012,-81.40852497,13941,424.3461097,32.85289928
10/31/2020,Meriwether,Georgia,13199,700,16,yes,yes,33.04068476,-84.68829613,21195,501.2225553,42.28660457
10/31/2020,Miller,Georgia,13201,349,2,yes,yes,31.16400903,-84.73079545,5911,282.4208102,20.92976079
10/31/2020,Mitchell,Georgia,13205,894,46,yes,yes,31.2253249,-84.19429763,22778,512.084439,44.48094546
10/31/2020,Monroe,Georgia,13207,872,55,yes,yes,33.01392553,-83.91866272,27044,396.1070198,68.27447798
10/31/2020,Montgomery,Georgia,13209,405,10,yes,yes,32.17339974,-82.53477728,9005,239.5262753,37.59504041
10/31/2020,Morgan,Georgia,13211,676,6,yes,yes,33.59092647,-83.49227741,17943,347.3549373,51.65609604
10/31/2020,Murray,Georgia,13213,1106,9,yes,yes,34.78844133,-84.74807543,39358,344.4942388,114.248645
10/31/2020,Muscogee,Georgia,13215,6596,175,yes,yes,32.51002946,-84.8770543,200303,216.4218479,925.5211614
10/31/2020,Newton,Georgia,13217,3189,96,yes,yes,33.5550414,-83.85019093,103901,272.1974733,381.711846
10/31/2020,Oconee,Georgia,13219,1125,31,yes,yes,33.8349676,-83.43710746,35071,184.323455,190.2687859
10/31/2020,Oglethorpe,Georgia,13221,467,13,yes,yes,33.8806742,-83.08071621,14743,439.0111173,33.58229307
10/31/2020,Paulding,Georgia,13223,3729,61,yes,yes,33.92054547,-84.86728364,149830,312.2916702,479.7758451
10/31/2020,Peach,Georgia,13225,878,26,yes,yes,32.56876262,-83.82689335,26907,150.26712,179.0611279
10/31/2020,Pickens,Georgia,13227,859,10,yes,yes,34.46433832,-84.46556726,29992,232.0580889,129.2435017
10/31/2020,Pierce,Georgia,13229,1062,24,yes,yes,31.35877451,-82.21276744,19030,340.1755976,55.94169639
10/31/2020,Pike,Georgia,13231,599,11,yes,yes,33.0923013,-84.38925496,17843,216.0856723,82.57373016
10/31/2020,Polk,Georgia,13233,1871,29,yes,yes,34.00179797,-85.18814687,41263,310.3382984,132.9613529
10/31/2020,Pulaski,Georgia,13235,399,23,yes,yes,32.23226931,-83.4759786,11460,249.0597079,46.01306289
10/31/2020,Putnam,Georgia,13237,875,27,yes,yes,33.32177305,-83.37279765,21259,344.6478356,61.68325405
10/31/2020,Quitman,Georgia,13239,58,1,yes,yes,31.86735339,-85.01877432,2095,151.2373418,13.85239898
10/31/2020,Rabun,Georgia,13241,438,11,yes,yes,34.88174205,-83.40207685,16312,370.13049,44.07094374
10/31/2020,Randolph,Georgia,13243,356,29,yes,yes,31.76265645,-84.75420492,7224,428.2358591,16.86920851
10/31/2020,Richmond,Georgia,13245,8421,185,yes,yes,33.3596023,-82.07351213,201418,324.3289206,621.0300323
10/31/2020,Rockdale,Georgia,13247,2266,41,yes,yes,33.6542567,-84.02659944,87569,129.8095299,674.5960801
10/31/2020,Schley,Georgia,13249,142,2,yes,yes,32.26166867,-84.31476109,5089,166.905893,30.49023559
10/31/2020,Screven,Georgia,13251,482,11,yes,yes,32.75061321,-81.61194474,14114,645.1005679,21.87875922
10/31/2020,Seminole,Georgia,13253,412,11,yes,yes,30.93879146,-84.86884301,8696,235.2308443,36.96794112
10/31/2020,Spalding,Georgia,13255,1896,63,yes,yes,33.26088451,-84.28410061,64006,195.8826674,326.7568327
10/31/2020,Stephens,Georgia,13257,1303,42,yes,yes,34.55396522,-83.29347005,25584,179.131275,142.822631
10/31/2020,Stewart,Georgia,13259,613,16,yes,yes,32.07849577,-84.8352213,5791,458.7482678,12.62348091
10/31/2020,Sumter,Georgia,13261,1138,68,yes,yes,32.03994806,-84.1969925,31070,482.6936482,64.36794874
10/31/2020,Talbot,Georgia,13263,198,8,yes,yes,32.69950624,-84.53301322,6373,391.3885016,16.28305373
10/31/2020,Taliaferro,Georgia,13265,32,0,yes,yes,33.56614324,-82.8787678,1904,194.6073922,9.783801007
10/31/2020,Tattnall,Georgia,13267,1011,16,yes,yes,32.04580554,-82.05813132,25260,479.5207048,52.67760025
10/31/2020,Taylor,Georgia,13269,290,12,yes,yes,32.55590473,-84.25186654,8354,376.6855298,22.17765043
10/31/2020,Telfair,Georgia,13271,614,24,yes,yes,31.92981114,-82.93901577,16405,437.3032109,37.5140168
10/31/2020,Terrell,Georgia,13273,378,32,yes,yes,31.77701017,-84.43697568,9132,335.4397496,27.22396499
10/31/2020,Thomas,Georgia,13275,1740,71,yes,yes,30.86376148,-83.91931943,44977,544.6013409,82.58701663
10/31/2020,Tift,Georgia,13277,2129,65,yes,yes,31.45743525,-83.52660662,40691,260.8758028,155.9784371
10/31/2020,Toombs,Georgia,13279,1567,57,yes,yes,32.12161857,-82.33121944,27160,364.0056015,74.6142364
10/31/2020,Towns,Georgia,13281,460,13,yes,yes,34.91664326,-83.73732689,10976,166.5310556,65.90962847
10/31/2020,Treutlen,Georgia,13283,361,12,yes,yes,32.40388089,-82.56728825,6711,199.4356665,33.64994897
10/31/2020,Troup,Georgia,13285,3465,109,yes,yes,33.03353059,-85.02834896,69314,413.9911629,167.4286946
10/31/2020,Turner,Georgia,13287,384,24,yes,yes,31.71638702,-83.62409818,8151,285.3929416,28.56062226
10/31/2020,Twiggs,Georgia,13289,227,10,yes,yes,32.66720572,-83.42707988,8363,358.4125175,23.33344845
10/31/2020,Union,Georgia,13291,917,26,yes,yes,34.83408488,-83.99076627,22033,321.9675393,68.43236449
10/31/2020,Upson,Georgia,13293,1278,71,yes,yes,32.88126278,-84.2993667,26394,323.4364832,81.60489422
10/31/2020,Walker,Georgia,13295,1954,46,yes,yes,34.73565161,-85.30099464,68143,446.3902895,152.6534103
10/31/2020,Walton,Georgia,13297,2660,70,yes,yes,33.78156415,-83.73387416,87436,325.6869247,268.4664117
10/31/2020,Ware,Georgia,13299,2329,65,yes,yes,31.05377661,-82.42371774,35671,892.8887801,39.95010442
10/31/2020,Warren,Georgia,13301,189,6,yes,yes,33.40895241,-82.67675465,5504,284.2992721,19.35988073
10/31/2020,Washington,Georgia,13303,864,13,yes,yes,32.9695396,-82.79593471,20680,678.4539838,30.48106503
10/31/2020,Wayne,Georgia,13305,1397,33,yes,yes,31.55146885,-81.91674197,30006,641.7934082,46.75336271
10/31/2020,Webster,Georgia,13307,55,2,yes,yes,32.04666296,-84.55104926,2672,209.1179695,12.77747678
10/31/2020,Wheeler,Georgia,13309,411,17,yes,yes,32.11705871,-82.72458382,7932,295.4843239,26.84406365
10/31/2020,White,Georgia,13311,1031,24,yes,yes,34.64638825,-83.74711356,28140,240.6968057,116.9105669
10/31/2020,Whitfield,Georgia,13313,5672,64,yes,yes,34.80561676,-84.96721231,103653,290.4620361,356.8555856
10/31/2020,Wilcox,Georgia,13315,318,25,yes,yes,31.97288295,-83.43232351,8884,377.7043305,23.52104353
10/31/2020,Wilkes,Georgia,13317,331,7,yes,yes,33.78195332,-82.74320374,9924,469.4899532,21.13783252
10/31/2020,Wilkinson,Georgia,13319,383,17,yes,yes,32.80238693,-83.17124291,9312,447.3151142,20.81753937
10/31/2020,Worth,Georgia,13321,671,35,yes,yes,31.55151508,-83.85089036,20988,570.7065994,36.775464
10/31/2020,Hawaii,Hawaii,15001,1285,31,yes,yes,19.59872431,-155.518508,193680,4028.448444,48.07806347
10/31/2020,Honolulu,Hawaii,15003,13213,170,yes,yes,21.45732929,-157.972883,986999,600.6055379,1643.339826
10/31/2020,Kauai,Hawaii,15007,64,0,yes,yes,22.05835821,-159.5236352,70447,619.8838019,113.6454926
10/31/2020,Maui,Hawaii,15009,645,17,yes,yes,20.79081095,-156.3372536,162456,1161.530422,139.8637496
10/31/2020,Ada,Idaho,16001,17326,180,yes,yes,43.45109842,-116.2411738,425798,1052.518764,404.5514576
10/31/2020,Adams,Idaho,16003,65,2,yes,yes,44.88959801,-116.4538383,3865,1362.804541,2.836063341
10/31/2020,Bannock,Idaho,16005,2772,14,yes,yes,42.66849884,-112.2246267,83815,1112.469401,75.34139808
10/31/2020,Bear Lake,Idaho,16007,77,1,yes,yes,42.28475606,-111.3296672,5928,974.9677781,6.080200939
10/31/2020,Benewah,Idaho,16009,182,3,yes,yes,47.21758721,-116.6587406,9068,776.8644326,11.67256425
10/31/2020,Bingham,Idaho,16011,1674,23,yes,yes,43.21656541,-112.3980926,45261,2093.855619,21.6161036
10/31/2020,Blaine,Idaho,16013,911,7,yes,yes,43.41195405,-113.9801765,21427,2637.637357,8.12355798
10/31/2020,Boise,Idaho,16015,87,2,yes,yes,43.98913598,-115.7303778,6891,1899.558414,3.627685228
10/31/2020,Bonner,Idaho,16017,523,2,yes,yes,48.30004189,-116.6012416,41389,1733.002188,23.88283194
10/31/2020,Bonneville,Idaho,16019,4769,38,yes,yes,43.38774362,-111.6148033,108989,1865.946349,58.40950362
10/31/2020,Boundary,Idaho,16021,203,1,yes,yes,48.76694149,-116.462899,11141,1268.727377,8.781240322
10/31/2020,Butte,Idaho,16023,104,0,yes,yes,43.7228837,-113.1720484,2592,2236.30924,1.159052583
10/31/2020,Camas,Idaho,16025,41,0,yes,yes,43.46333535,-114.80578,968,1074.233791,0.901107383
10/31/2020,Canyon,Idaho,16027,10335,111,yes,yes,43.62513298,-116.7093181,202782,587.3968306,345.2214745
10/31/2020,Caribou,Idaho,16029,306,4,yes,yes,42.77053806,-111.5622723,6813,1764.109626,3.862004889
10/31/2020,Cassia,Idaho,16031,1461,9,yes,yes,42.28383855,-113.6001381,23441,2565.607578,9.136627208
10/31/2020,Clark,Idaho,16033,40,0,yes,yes,44.28401344,-112.3514125,960,1763.178876,0.544471133
10/31/2020,Clearwater,Idaho,16035,149,0,yes,yes,46.67361565,-115.6563211,8528,2457.190439,3.470630467
10/31/2020,Custer,Idaho,16037,97,1,yes,yes,44.2411811,-114.2817243,4185,4922.591942,0.850161876
10/31/2020,Elmore,Idaho,16039,577,4,yes,yes,43.35396261,-115.4693093,26103,3074.98405,8.488824518
10/31/2020,Franklin,Idaho,16041,394,2,yes,yes,42.18116102,-111.8132247,13013,663.2161622,19.6210538
10/31/2020,Fremont,Idaho,16043,502,4,yes,yes,44.22886198,-111.482034,12896,1863.824785,6.919105327
10/31/2020,Gem,Idaho,16045,448,6,yes,yes,44.06155217,-116.3975297,16853,559.7915164,30.10585103
10/31/2020,Gooding,Idaho,16047,631,8,yes,yes,42.9710318,-114.8115511,15157,729.2833248,20.78341775
10/31/2020,Idaho,Idaho,16049,383,1,yes,yes,45.84403239,-115.4675129,16251,8477.319027,1.916997573
10/31/2020,Jefferson,Idaho,16051,1042,4,yes,yes,43.82016095,-112.311241,27096,1093.759565,24.77326906
10/31/2020,Jerome,Idaho,16053,1189,9,yes,yes,42.689897,-114.264072,22694,597.1986426,38.00075617
10/31/2020,Kootenai,Idaho,16055,4444,51,yes,yes,47.67438083,-116.7018402,147716,1237.556553,119.36101
10/31/2020,Latah,Idaho,16057,982,1,yes,yes,46.81619342,-116.7116466,38593,1075.860906,35.87173751
10/31/2020,Lemhi,Idaho,16059,285,1,yes,yes,44.94331025,-113.9332995,7743,4563.393826,1.696763482
10/31/2020,Lewis,Idaho,16061,85,3,yes,yes,46.23702353,-116.4262942,3826,478.8660094,7.989708865
10/31/2020,Lincoln,Idaho,16063,237,3,yes,yes,43.00239282,-114.138315,5292,1201.403988,4.404846374
10/31/2020,Madison,Idaho,16065,2753,4,yes,yes,43.7841548,-111.6592367,38114,469.3078733,81.21321241
10/31/2020,Minidoka,Idaho,16067,1257,9,yes,yes,42.85423241,-113.637617,20331,757.1949307,26.85041748
10/31/2020,Nez Perce,Idaho,16069,924,24,yes,yes,46.32681683,-116.7502507,39995,848.2885972,47.14786941
10/31/2020,Oneida,Idaho,16071,64,0,yes,yes,42.1949258,-112.5392989,4269,1198.842351,3.560935262
10/31/2020,Owyhee,Idaho,16073,405,5,yes,yes,42.58149308,-116.1699333,11356,7665.991556,1.481347836
10/31/2020,Payette,Idaho,16075,1171,10,yes,yes,44.0067523,-116.7608463,22773,406.8964178,55.96756079
10/31/2020,Power,Idaho,16077,383,2,yes,yes,42.69366865,-112.8406923,7696,1403.821894,5.48217693
10/31/2020,Shoshone,Idaho,16079,287,20,yes,yes,47.35297449,-115.8924722,12551,2637.59765,4.758496809
10/31/2020,Teton,Idaho,16081,307,2,yes,yes,43.75947676,-111.207636,10437,449.1812424,23.23560962
10/31/2020,Twin Falls,Idaho,16083,4316,50,yes,yes,42.35598792,-114.6671433,80955,1921.762419,42.12539448
10/31/2020,Valley,Idaho,16085,127,1,yes,yes,44.76659828,-115.5663603,9897,3665.216708,2.700249614
10/31/2020,Washington,Idaho,16087,482,8,yes,yes,44.45242979,-116.7847496,10035,1452.864334,6.907045461
10/31/2020,Adams,Illinois,17001,2285,26,yes,yes,39.9878781,-91.18853522,66949,855.20523,78.28413304
10/31/2020,Alexander,Illinois,17003,147,1,yes,yes,37.19152472,-89.33756723,7051,235.5210393,29.9378774
10/31/2020,Bond,Illinois,17005,532,9,yes,yes,38.88683973,-89.43556006,17137,380.2790606,45.06427457
10/31/2020,Boone,Illinois,17007,2038,25,yes,yes,42.32306094,-88.82336484,53656,280.7353727,191.1266097
10/31/2020,Brown,Illinois,17009,121,0,yes,yes,39.96183392,-90.75035135,6836,305.6067906,22.36861291
10/31/2020,Bureau,Illinois,17011,986,17,yes,yes,41.40415185,-89.52867917,33822,869.0329731,38.91912165
10/31/2020,Calhoun,Illinois,17013,70,0,yes,yes,39.16925024,-90.6675377,4962,253.8245807,19.5489341
10/31/2020,Carroll,Illinois,17015,490,13,yes,yes,42.06869511,-89.93439675,14793,445.0628198,33.23800448
10/31/2020,Cass,Illinois,17017,474,11,yes,yes,39.97357618,-90.24742647,13068,375.8107616,34.77282009
10/31/2020,Champaign,Illinois,17019,6585,28,yes,yes,40.14009803,-88.1992076,206420,996.235782,207.1999458
10/31/2020,Christian,Illinois,17021,888,32,yes,yes,39.54580842,-89.27728006,33888,709.3770416,47.77149247
10/31/2020,Clark,Illinois,17023,328,18,yes,yes,39.33359575,-87.78768974,16089,501.4206508,32.08683164
10/31/2020,Clay,Illinois,17025,335,14,yes,yes,38.75415775,-88.4901667,13466,468.3258294,28.75348562
10/31/2020,Clinton,Illinois,17027,1877,31,yes,yes,38.60645123,-89.42249738,37858,474.0846527,79.85493684
10/31/2020,Coles,Illinois,17029,2111,40,yes,yes,39.52027554,-88.22181532,52802,508.2875254,103.8821481
10/31/2020,Cook,Illinois,17031,186405,5469,yes,yes,41.84003921,-87.81671569,5227575,944.9909219,5531.878539
10/31/2020,Crawford,Illinois,17033,676,6,yes,yes,39.00273279,-87.75964039,19441,443.6303049,43.82252471
10/31/2020,Cumberland,Illinois,17035,313,6,yes,yes,39.27331383,-88.24022018,10890,346.0258043,31.47164132
10/31/2020,De Witt,Illinois,17039,282,6,yes,yes,40.17461939,-88.90408826,16322,397.547444,41.05673486
10/31/2020,DeKalb,Illinois,17037,2728,43,yes,yes,41.8935481,-88.77032413,104458,631.3513193,165.4514639
10/31/2020,Douglas,Illinois,17041,787,9,yes,yes,39.76946546,-88.21737671,19770,416.6645262,47.44824375
10/31/2020,DuPage,Illinois,17043,24696,619,yes,yes,41.85195487,-88.08563937,930514,327.5174787,2841.112492
10/31/2020,Edgar,Illinois,17045,167,11,yes,yes,39.67855847,-87.74559991,17828,623.3739551,28.59920575
10/31/2020,Edwards,Illinois,17047,114,0,yes,yes,38.41655061,-88.05328485,6612,222.4185865,29.72773141
10/31/2020,Effingham,Illinois,17049,1285,4,yes,yes,39.05979093,-88.58987405,34356,478.7771596,71.75780906
10/31/2020,Fayette,Illinois,17051,720,24,yes,yes,39.00019534,-89.02413948,22025,716.4846945,30.74036357
10/31/2020,Ford,Illinois,17053,217,16,yes,yes,40.5972002,-88.2232719,13758,485.6080982,28.33148799
10/31/2020,Franklin,Illinois,17055,1081,10,yes,yes,37.99228695,-88.92414534,39503,408.8901655,96.61029619
10/31/2020,Fulton,Illinois,17057,622,2,yes,yes,40.47277131,-90.20747947,36047,865.5946579,41.6442034
10/31/2020,Gallatin,Illinois,17059,113,2,yes,yes,37.76271035,-88.2305496,5325,323.0708331,16.48245355
10/31/2020,Greene,Illinois,17061,329,17,yes,yes,39.35621604,-90.39046749,13390,543.018993,24.65843768
10/31/2020,Grundy,Illinois,17063,1086,7,yes,yes,41.28511276,-88.41849162,50338,418.0517695,120.4109244
10/31/2020,Hamilton,Illinois,17065,143,2,yes,yes,38.08157561,-88.53911783,8251,434.6653752,18.98241836
10/31/2020,Hancock,Illinois,17067,345,4,yes,yes,40.4037517,-91.16473997,18633,793.7255444,23.47536895
10/31/2020,Hardin,Illinois,17069,58,0,yes,yes,37.51821737,-88.2668844,4173,177.5281394,23.50613269
10/31/2020,Henderson,Illinois,17071,136,0,yes,yes,40.81803234,-90.92511483,6966,378.8717439,18.38616923
10/31/2020,Henry,Illinois,17073,879,7,yes,yes,41.35314456,-90.13143703,49681,822.996515,60.36599073
10/31/2020,Iroquois,Illinois,17075,539,19,yes,yes,40.74724995,-87.82435677,28814,1117.290931,25.78916485
10/31/2020,Jackson,Illinois,17077,1637,26,yes,yes,37.7851512,-89.38213476,59188,584.071709,101.336872
10/31/2020,Jasper,Illinois,17079,280,10,yes,yes,39.01003611,-88.15382835,9592,494.5148381,19.39678906
10/31/2020,Jefferson,Illinois,17081,973,52,yes,yes,38.30053749,-88.92399579,38523,571.1662519,67.4462118
10/31/2020,Jersey,Illinois,17083,485,21,yes,yes,39.08568533,-90.35669373,22441,369.2807363,60.76948456
10/31/2020,Jo Daviess,Illinois,17085,556,9,yes,yes,42.36576243,-90.21250527,22186,600.9056778,36.92093588
10/31/2020,Johnson,Illinois,17087,392,0,yes,yes,37.45963631,-88.88093142,12866,343.9169059,37.41019932
10/31/2020,Kane,Illinois,17089,18030,351,yes,yes,41.93888869,-88.42864695,526615,520.1629461,1012.403909
10/31/2020,Kankakee,Illinois,17091,3682,81,yes,yes,41.13771689,-87.86183075,111493,676.5705976,164.7913764
10/31/2020,Kendall,Illinois,17093,2942,30,yes,yes,41.59054554,-88.42884135,121452,320.284326,379.2005731
10/31/2020,Knox,Illinois,17095,1418,21,yes,yes,40.93181491,-90.21326917,51752,716.4147892,72.23748139
10/31/2020,LaSalle,Illinois,17099,2652,68,yes,yes,41.34399369,-88.88596252,111935,1135.13602,98.60932792
10/31/2020,Lake,Illinois,17097,21819,518,yes,yes,42.32337829,-88.00363099,702890,443.8769519,1583.524436
10/31/2020,Lawrence,Illinois,17101,362,8,yes,yes,38.71998612,-87.72674475,16582,372.1779511,44.55395585
10/31/2020,Lee,Illinois,17103,840,2,yes,yes,41.74620692,-89.3004019,34718,724.8567955,47.8963572
10/31/2020,Livingston,Illinois,17105,730,12,yes,yes,40.8915759,-88.55772436,37278,1044.227927,35.69910269
10/31/2020,Logan,Illinois,17107,645,4,yes,yes,40.12456858,-89.36754864,29820,618.0561974,48.24803979
10/31/2020,Macon,Illinois,17115,3555,56,yes,yes,39.85998925,-88.9616116,108404,580.6871771,186.6822694
10/31/2020,Macoupin,Illinois,17117,854,11,yes,yes,39.26101161,-89.92443787,46482,862.9185371,53.86603486
10/31/2020,Madison,Illinois,17119,7694,159,yes,yes,38.82987917,-89.90514231,266759,715.733518,372.7071505
10/31/2020,Marion,Illinois,17121,1170,23,yes,yes,38.64960054,-88.91898577,38503,572.3739582,67.26895843
10/31/2020,Marshall,Illinois,17123,171,3,yes,yes,41.03317278,-89.34476445,12060,386.7923002,31.1795245
10/31/2020,Mason,Illinois,17125,346,5,yes,yes,40.23966337,-89.91677898,13931,539.2374262,25.83463113
10/31/2020,Massac,Illinois,17127,165,2,yes,yes,37.2189768,-88.7077276,14883,237.2175174,62.739886
10/31/2020,McDonough,Illinois,17109,818,22,yes,yes,40.45620284,-90.67791649,31727,589.4071309,53.8286667
10/31/2020,McHenry,Illinois,17111,7151,126,yes,yes,42.32447091,-88.45235841,307083,603.2211848,509.0719752
10/31/2020,McLean,Illinois,17113,4392,37,yes,yes,40.49087795,-88.84733132,173254,1183.349025,146.4098895
10/31/2020,Menard,Illinois,17129,191,1,yes,yes,40.02739711,-89.80219266,12576,314.4373016,39.99525481
10/31/2020,Mercer,Illinois,17131,311,6,yes,yes,41.2053431,-90.74145468,15971,561.1994041,28.45869023
10/31/2020,Monroe,Illinois,17133,1016,30,yes,yes,38.27855366,-90.17738453,33703,385.0166414,87.53647603
10/31/2020,Montgomery,Illinois,17135,667,15,yes,yes,39.23104017,-89.47889222,29301,703.6861897,41.63929949
10/31/2020,Morgan,Illinois,17137,1042,27,yes,yes,39.7155671,-90.20147724,34801,568.8034838,61.18281796
10/31/2020,Moultrie,Illinois,17139,470,6,yes,yes,39.6414236,-88.6193077,14915,335.9430695,44.39740347
10/31/2020,Ogle,Illinois,17141,1354,8,yes,yes,42.0426525,-89.32067405,52034,758.5772789,68.59419791
10/31/2020,Peoria,Illinois,17143,4906,78,yes,yes,40.78806447,-89.75998456,186818,619.1892805,301.7138796
10/31/2020,Perry,Illinois,17145,485,16,yes,yes,38.08377711,-89.36698605,21595,441.7725505,48.88262065
10/31/2020,Piatt,Illinois,17147,282,2,yes,yes,40.01034967,-88.59110974,16469,439.1698261,37.50029948
10/31/2020,Pike,Illinois,17149,423,7,yes,yes,39.622509,-90.88630314,16054,831.4002598,19.30959223
10/31/2020,Pope,Illinois,17151,44,1,yes,yes,37.41270136,-88.5615292,4255,368.7697538,11.53836494
10/31/2020,Pulaski,Illinois,17153,246,1,yes,yes,37.22288954,-89.12658824,5792,199.1851816,29.07846835
10/31/2020,Putnam,Illinois,17155,101,0,yes,yes,41.204469,-89.28584768,5746,160.1604606,35.8765202
10/31/2020,Randolph,Illinois,17157,1358,15,yes,yes,38.05214073,-89.82532905,32934,575.5028187,57.22647905
10/31/2020,Richland,Illinois,17159,347,18,yes,yes,38.71239866,-88.08511317,16072,360.018728,44.64212206
10/31/2020,Rock Island,Illinois,17161,4609,103,yes,yes,41.4673262,-90.56738489,146536,427.4594995,342.8067458
10/31/2020,Saline,Illinois,17165,637,11,yes,yes,37.75319887,-88.5408089,24659,379.8265421,64.92173997
10/31/2020,Sangamon,Illinois,17167,4450,66,yes,yes,39.75817299,-89.65888305,198639,868.3015028,228.7673111
10/31/2020,Schuyler,Illinois,17169,101,1,yes,yes,40.15803606,-90.61508532,7205,437.2727529,16.47713001
10/31/2020,Scott,Illinois,17171,116,0,yes,yes,39.64412763,-90.47470403,5169,250.9127229,20.60078875
10/31/2020,Shelby,Illinois,17173,746,12,yes,yes,39.39112609,-88.80559467,22011,758.5352784,29.01776704
10/31/2020,St. Clair,Illinois,17163,9344,223,yes,yes,38.4703081,-89.92839417,265569,657.7786912,403.7360948
10/31/2020,Stark,Illinois,17175,96,3,yes,yes,41.09333242,-89.7975205,5840,288.0789995,20.27221703
10/31/2020,Stephenson,Illinois,17177,1182,9,yes,yes,42.35172404,-89.66236988,46283,564.5489281,81.9822653
10/31/2020,Tazewell,Illinois,17179,2905,60,yes,yes,40.50753266,-89.51342674,135400,646.8853534,209.3106596
10/31/2020,Union,Illinois,17181,810,25,yes,yes,37.47123876,-89.2551183,17458,413.4596194,42.22419598
10/31/2020,Vermilion,Illinois,17183,1893,11,yes,yes,40.18345022,-87.73284619,79613,898.3680501,88.61958079
10/31/2020,Wabash,Illinois,17185,256,6,yes,yes,38.4460344,-87.84450832,11587,223.2536849,51.9005991
10/31/2020,Warren,Illinois,17187,561,9,yes,yes,40.84882236,-90.61501176,17611,542.4051587,32.46834901
10/31/2020,Washington,Illinois,17189,339,2,yes,yes,38.35217318,-89.41045417,14369,562.57305,25.54157189
10/31/2020,Wayne,Illinois,17191,532,17,yes,yes,38.42957814,-88.42563348,16517,713.8136953,23.13909093
10/31/2020,White,Illinois,17193,289,5,yes,yes,38.0874217,-88.17955296,14410,494.766377,29.12485704
10/31/2020,Whiteside,Illinois,17195,1859,31,yes,yes,41.75628031,-89.91411599,57155,684.2495327,83.52946881
10/31/2020,Will,Illinois,17197,19946,439,yes,yes,41.44502926,-87.97856177,685378,836.9344995,818.9147423
10/31/2020,Williamson,Illinois,17199,2016,61,yes,yes,37.73025754,-88.92992682,67336,420.1747312,160.2571383
10/31/2020,Winnebago,Illinois,17201,11084,190,yes,yes,42.33626415,-89.16084976,288896,513.3982989,562.7132007
10/31/2020,Woodford,Illinois,17203,748,18,yes,yes,40.78823179,-89.21114894,39123,527.8110877,74.1231113
10/31/2020,Adams,Indiana,18001,678,9,yes,yes,40.74563522,-84.93661743,34813,339.0282442,102.6846601
10/31/2020,Allen,Indiana,18003,9523,248,yes,yes,41.09087832,-85.06657027,365565,657.3210298,556.1437766
10/31/2020,Bartholomew,Indiana,18005,1586,63,yes,yes,39.20596438,-85.89759911,80203,406.8938263,197.1103881
10/31/2020,Benton,Indiana,18007,120,0,yes,yes,40.60626297,-87.31094315,8709,406.4173174,21.42871287
10/31/2020,Blackford,Indiana,18009,294,6,yes,yes,40.47364543,-85.3248267,12364,165.0796993,74.89715606
10/31/2020,Boone,Indiana,18011,1425,53,yes,yes,40.05080318,-86.46871135,61884,422.9114747,146.3284959
10/31/2020,Brown,Indiana,18013,159,3,yes,yes,39.196239,-86.22738187,14965,311.9873508,47.96668827
10/31/2020,Carroll,Indiana,18015,379,13,yes,yes,40.58285012,-86.56350546,20007,372.2279034,53.74932889
10/31/2020,Cass,Indiana,18017,2397,27,yes,yes,40.76154361,-86.34598886,38324,412.1546097,92.98452353
10/31/2020,Clark,Indiana,18019,3289,74,yes,yes,38.47731863,-85.70730263,113993,372.8302758,305.750384
10/31/2020,Clay,Indiana,18021,545,9,yes,yes,39.39278405,-87.11576358,26568,357.5729078,74.30093115
10/31/2020,Clinton,Indiana,18023,1040,20,yes,yes,40.30170003,-86.47515077,32692,405.0670252,80.707631
10/31/2020,Crawford,Indiana,18025,177,2,yes,yes,38.29237846,-86.45172457,10582,305.6390027,34.6225446
10/31/2020,Daviess,Indiana,18027,995,38,yes,yes,38.70244624,-87.07204575,32583,429.4886516,75.86463548
10/31/2020,DeKalb,Indiana,18033,894,14,yes,yes,41.3975764,-84.9990716,42489,362.8324282,117.1036454
10/31/2020,Dearborn,Indiana,18029,1135,30,yes,yes,39.14523776,-84.97332698,49552,305.0338943,162.4475211
10/31/2020,Decatur,Indiana,18031,630,42,yes,yes,39.30700898,-85.50111397,26340,372.56766,70.69856787
10/31/2020,Delaware,Indiana,18035,3381,82,yes,yes,40.2275537,-85.39690454,116463,392.1279789,297.0025254
10/31/2020,Dubois,Indiana,18037,1621,28,yes,yes,38.36427829,-86.87981071,42345,427.2700393,99.10594263
10/31/2020,Elkhart,Indiana,18039,10224,155,yes,yes,41.59739552,-85.85875298,201640,463.1736357,435.3442953
10/31/2020,Fayette,Indiana,18041,1030,22,yes,yes,39.64003666,-85.17876871,23608,215.0207984,109.79403
10/31/2020,Floyd,Indiana,18043,2016,72,yes,yes,38.31904556,-85.90691289,76290,147.9884024,515.5133698
10/31/2020,Fountain,Indiana,18045,386,3,yes,yes,40.12090596,-87.24197655,16741,395.665457,42.31099709
10/31/2020,Franklin,Indiana,18047,416,27,yes,yes,39.4148759,-85.06014799,22887,384.4303698,59.53483854
10/31/2020,Fulton,Indiana,18049,431,11,yes,yes,41.0469856,-86.26354313,20412,368.3869487,55.4091291
10/31/2020,Gibson,Indiana,18051,1011,12,yes,yes,38.31189316,-87.58459724,33684,487.494801,69.09612149
10/31/2020,Grant,Indiana,18053,1894,43,yes,yes,40.51580752,-85.65472029,68269,414.0761582,164.8706371
10/31/2020,Greene,Indiana,18055,627,41,yes,yes,39.03636831,-86.96205732,32633,542.5092287,60.15197212
10/31/2020,Hamilton,Indiana,18057,6985,133,yes,yes,40.07248721,-86.05203252,303042,394.2968223,768.5631303
10/31/2020,Hancock,Indiana,18059,1370,47,yes,yes,39.82356369,-85.77325014,71955,306.017051,235.1339567
10/31/2020,Harrison,Indiana,18061,883,26,yes,yes,38.19526637,-86.11148205,39370,484.5153276,81.25645931
10/31/2020,Hendricks,Indiana,18063,3691,157,yes,yes,39.76952745,-86.50997547,155817,406.8931618,382.9432751
10/31/2020,Henry,Indiana,18065,1484,31,yes,yes,39.9310716,-85.39642401,48953,391.8760701,124.9195951
10/31/2020,Howard,Indiana,18067,1819,71,yes,yes,40.48361522,-86.11696456,82728,292.9969668,282.3510458
10/31/2020,Huntington,Indiana,18069,531,5,yes,yes,40.82922724,-85.48813576,36696,382.6481168,95.90011916
10/31/2020,Jackson,Indiana,18071,1290,21,yes,yes,38.9064269,-86.03753354,43637,509.3146,85.67788947
10/31/2020,Jasper,Indiana,18073,800,6,yes,yes,41.0229897,-87.11612935,33461,559.6285736,59.79144307
10/31/2020,Jay,Indiana,18075,422,7,yes,yes,40.43796501,-85.00570982,21196,383.9051186,55.21155872
10/31/2020,Jefferson,Indiana,18077,441,5,yes,yes,38.78577378,-85.43853029,32482,360.6321422,90.06961998
10/31/2020,Jennings,Indiana,18079,430,15,yes,yes,38.99692687,-85.62805675,28023,376.5900718,74.41247685
10/31/2020,Johnson,Indiana,18081,3605,151,yes,yes,39.48996446,-86.10161343,147567,320.4296869,460.5284905
10/31/2020,Knox,Indiana,18083,941,10,yes,yes,38.68903794,-87.41805432,37956,516.0286161,73.55406041
10/31/2020,Kosciusko,Indiana,18085,2320,31,yes,yes,41.24407952,-85.86072841,78461,531.420331,147.6439561
10/31/2020,LaGrange,Indiana,18087,878,16,yes,yes,41.64262938,-85.42649644,38395,379.6298702,101.1379847
10/31/2020,LaPorte,Indiana,18091,2600,67,yes,yes,41.5459901,-86.7399788,110993,598.3264713,185.5057487
10/31/2020,Lake,Indiana,18089,15786,393,yes,yes,41.41706844,-87.38209179,489698,498.8899475,981.5752
10/31/2020,Lawrence,Indiana,18093,1092,41,yes,yes,38.84116591,-86.48345655,45696,449.1783822,101.7324115
10/31/2020,Madison,Indiana,18095,2832,111,yes,yes,40.16162582,-85.71936434,129862,451.9160087,287.3587072
10/31/2020,Marion,Indiana,18097,27627,850,yes,yes,39.78171884,-86.13847532,932142,396.3769966,2351.655136
10/31/2020,Marshall,Indiana,18099,1602,30,yes,yes,41.32485133,-86.26177169,46833,443.6288436,105.567978
10/31/2020,Martin,Indiana,18101,214,0,yes,yes,38.70801603,-86.80306865,10218,335.7603664,30.43241854
10/31/2020,Miami,Indiana,18103,761,5,yes,yes,40.76946588,-86.04504585,36093,373.8420858,96.5461123
10/31/2020,Monroe,Indiana,18105,3548,43,yes,yes,39.16092833,-86.52313807,143292,394.5235198,363.2026808
10/31/2020,Montgomery,Indiana,18107,721,23,yes,yes,40.04039509,-86.89331458,38108,504.6176305,75.51856633
10/31/2020,Morgan,Indiana,18109,1086,44,yes,yes,39.48157647,-86.44623444,69504,403.9879894,172.0447187
10/31/2020,Newton,Indiana,18111,263,13,yes,yes,40.9558504,-87.39759726,14022,401.754543,34.90190775
10/31/2020,Noble,Indiana,18113,1348,36,yes,yes,41.39861192,-85.41750858,47587,410.8405208,115.8283996
10/31/2020,Ohio,Indiana,18115,148,7,yes,yes,38.9500484,-84.96510696,6003,86.14008169,69.68881248
10/31/2020,Orange,Indiana,18117,453,27,yes,yes,38.54179052,-86.49505344,19579,398.3871552,49.14566081
10/31/2020,Owen,Indiana,18119,234,2,yes,yes,39.31282953,-86.83765407,21038,385.2995993,54.60166591
10/31/2020,Parke,Indiana,18121,291,4,yes,yes,39.77364028,-87.20638954,17033,444.6919866,38.30291643
10/31/2020,Perry,Indiana,18123,473,15,yes,yes,38.07965373,-86.63803467,19301,381.726935,50.56232147
10/31/2020,Pike,Indiana,18125,379,18,yes,yes,38.39880001,-87.23215955,12554,334.2431222,37.55948639
10/31/2020,Porter,Indiana,18127,3937,56,yes,yes,41.46055692,-87.0672695,167016,418.0627205,399.4998641
10/31/2020,Posey,Indiana,18129,837,8,yes,yes,38.02184818,-87.86839758,25527,409.5722915,62.32599355
10/31/2020,Pulaski,Indiana,18131,196,4,yes,yes,41.04186288,-86.69879281,12910,433.6489509,29.77062431
10/31/2020,Putnam,Indiana,18133,832,17,yes,yes,39.66628873,-86.84500122,37626,480.5371059,78.29988472
10/31/2020,Randolph,Indiana,18135,541,11,yes,yes,40.15759543,-85.01144756,25403,452.3789693,56.15424616
10/31/2020,Ripley,Indiana,18137,553,8,yes,yes,39.10348188,-85.26238171,28633,446.4253386,64.13838446
10/31/2020,Rush,Indiana,18139,341,4,yes,yes,39.61997388,-85.46575742,16873,408.1235168,41.34287613
10/31/2020,Scott,Indiana,18143,610,18,yes,yes,38.685083,-85.74749008,23734,190.3969522,124.6553567
10/31/2020,Shelby,Indiana,18145,1526,47,yes,yes,39.52372505,-85.79167569,44404,411.1596005,107.9969918
10/31/2020,Spencer,Indiana,18147,462,6,yes,yes,38.01419369,-87.00771626,20777,396.7930408,52.36230947
10/31/2020,St. Joseph,Indiana,18141,10491,187,yes,yes,41.61666841,-86.28987894,267696,457.8832533,584.6381104
10/31/2020,Starke,Indiana,18149,511,11,yes,yes,41.28094294,-86.64764801,23069,309.1355177,74.62423009
10/31/2020,Steuben,Indiana,18151,740,9,yes,yes,41.6438995,-85.00086385,34279,308.7754772,111.0159405
10/31/2020,Sullivan,Indiana,18153,500,14,yes,yes,39.08882228,-87.41480281,21026,447.1286265,47.02449978
10/31/2020,Switzerland,Indiana,18155,111,0,yes,yes,38.82619139,-85.0369816,10484,220.6610513,47.51178306
10/31/2020,Tippecanoe,Indiana,18157,4424,17,yes,yes,40.38862743,-86.89406468,183397,499.8029162,366.9386353
10/31/2020,Tipton,Indiana,18159,306,26,yes,yes,40.31135198,-86.05185661,15447,260.5407022,59.28824123
10/31/2020,Union,Indiana,18161,158,0,yes,yes,39.62560237,-84.92514265,7251,161.2240592,44.97467707
10/31/2020,Vanderburgh,Indiana,18163,6594,76,yes,yes,38.02525961,-87.58584114,181692,233.6795335,777.5263723
10/31/2020,Vermillion,Indiana,18165,301,1,yes,yes,39.85380677,-87.46398159,15752,256.8781981,61.32089106
10/31/2020,Vigo,Indiana,18167,3039,48,yes,yes,39.43066582,-87.38993617,108099,403.473924,267.92066
10/31/2020,Wabash,Indiana,18169,555,10,yes,yes,40.84566083,-85.79399652,32177,412.4365572,78.01684754
10/31/2020,Warren,Indiana,18171,116,1,yes,yes,40.34694279,-87.3533009,8309,364.6812788,22.78427899
10/31/2020,Warrick,Indiana,18173,2174,68,yes,yes,38.09224621,-87.27210266,61427,384.8142394,159.6276689
10/31/2020,Washington,Indiana,18175,426,3,yes,yes,38.599993,-86.10530775,27792,513.7251064,54.09897171
10/31/2020,Wayne,Indiana,18177,2100,37,yes,yes,39.86438719,-85.00983723,67423,401.7426051,167.8263623
10/31/2020,Wells,Indiana,18179,567,15,yes,yes,40.72919685,-85.22119893,27836,368.0869726,75.62343162
10/31/2020,White,Indiana,18181,686,16,yes,yes,40.7497673,-86.86548985,24265,505.1256068,48.03755675
10/31/2020,Whitley,Indiana,18183,552,6,yes,yes,41.13938827,-85.50512537,33354,335.5691567,99.39530893
10/31/2020,Adair,Iowa,19001,220,1,no,no,41.33075073,-94.47097867,7330,569.27041,12.87613034
10/31/2020,Adams,Iowa,19003,86,1,no,no,41.02898221,-94.69917905,3822,423.4383642,9.02610704
10/31/2020,Allamakee,Iowa,19005,428,9,no,no,43.28429006,-91.37805866,14001,639.0815038,21.90800378
10/31/2020,Appanoose,Iowa,19007,276,3,no,no,40.74317821,-92.86863464,12602,497.2928412,25.34120533
10/31/2020,Audubon,Iowa,19009,191,1,no,no,41.68460941,-94.90582567,5793,442.9611392,13.07789665
10/31/2020,Benton,Iowa,19011,705,3,no,no,42.08020516,-92.0657158,25720,716.2645067,35.90852228
10/31/2020,Black Hawk,Iowa,19013,6352,102,no,no,42.47009879,-92.30883223,132821,565.781985,234.7565025
10/31/2020,Boone,Iowa,19015,782,9,no,no,42.03658707,-93.93169441,26411,571.571354,46.2077041
10/31/2020,Bremer,Iowa,19017,769,9,no,no,42.77459005,-92.31805509,24663,435.4788365,56.63421028
10/31/2020,Buchanan,Iowa,19019,539,5,no,no,42.47079426,-91.8378445,21031,571.0196753,36.83060481
10/31/2020,Buena Vista,Iowa,19021,2350,12,no,no,42.73550393,-95.1511426,20445,574.9016483,35.5626046
10/31/2020,Butler,Iowa,19023,429,3,no,no,42.73157619,-92.79018825,14933,580.1321848,25.7406853
10/31/2020,Calhoun,Iowa,19025,346,4,no,no,42.38519301,-94.64041148,9876,569.8458657,17.33100228
10/31/2020,Carroll,Iowa,19027,1246,13,no,no,42.03621538,-94.86057379,20555,569.4367787,36.0970713
10/31/2020,Cass,Iowa,19029,470,3,no,no,41.33151742,-94.92783621,13433,564.269076,23.80601839
10/31/2020,Cedar,Iowa,19031,535,7,no,no,41.77231849,-91.13243498,18389,579.4351564,31.73607917
10/31/2020,Cerro Gordo,Iowa,19033,1590,27,no,no,43.08157138,-93.26082813,43303,568.2964801,76.19790288
10/31/2020,Cherokee,Iowa,19035,444,2,no,no,42.73562825,-95.62382005,11752,576.9060578,20.37073427
10/31/2020,Chickasaw,Iowa,19037,389,1,no,no,43.06005057,-92.31768419,12164,504.3800079,24.116737
10/31/2020,Clarke,Iowa,19039,368,3,no,no,41.02902712,-93.78516451,9273,431.1663308,21.50678134
10/31/2020,Clay,Iowa,19041,591,4,no,no,43.08257539,-95.15094486,16478,567.2376861,29.04955084
10/31/2020,Clayton,Iowa,19043,549,3,no,no,42.84472908,-91.34143961,17735,778.4988815,22.78102181
10/31/2020,Clinton,Iowa,19045,1623,28,no,no,41.89803707,-90.5319864,47972,694.9183098,69.03257451
10/31/2020,Crawford,Iowa,19047,1400,15,no,no,42.03721425,-95.3819928,17147,714.189427,24.00903647
10/31/2020,Dallas,Iowa,19049,3712,47,no,no,41.68490364,-94.03975166,78074,588.4020414,132.6881868
10/31/2020,Davis,Iowa,19051,198,4,no,no,40.74770311,-92.40972206,8768,502.1881439,17.4595918
10/31/2020,Decatur,Iowa,19053,172,0,no,no,40.73770567,-93.78629089,8210,531.8814951,15.4357692
10/31/2020,Delaware,Iowa,19055,869,14,no,no,42.47120647,-91.36735433,17445,577.7559563,30.19440961
10/31/2020,Des Moines,Iowa,19057,1603,11,no,no,40.92319158,-91.18147386,40114,416.107827,96.40289704
10/31/2020,Dickinson,Iowa,19059,834,9,no,no,43.37791428,-95.15088808,17046,380.6056083,44.78651819
10/31/2020,Dubuque,Iowa,19061,5769,59,no,no,42.46883246,-90.88247471,96359,608.2991037,158.4072694
10/31/2020,Emmet,Iowa,19063,465,21,no,no,43.3779512,-94.67843654,9820,395.8813806,24.80541011
10/31/2020,Fayette,Iowa,19065,440,4,no,no,42.86261789,-91.84436579,20391,730.8296811,27.90116566
10/31/2020,Floyd,Iowa,19067,480,11,no,no,43.05994038,-92.78901385,16004,500.6318533,31.96760233
10/31/2020,Franklin,Iowa,19069,406,18,no,no,42.73255134,-93.26247745,10393,581.9719782,17.85824815
10/31/2020,Fremont,Iowa,19071,219,2,no,no,40.74557479,-95.60467848,7019,511.1245554,13.73246487
10/31/2020,Greene,Iowa,19073,208,0,no,no,42.0362473,-94.39685878,9083,569.5715186,15.94707548
10/31/2020,Grundy,Iowa,19075,370,6,no,no,42.40187296,-92.7914363,12373,501.8545244,24.65455505
10/31/2020,Guthrie,Iowa,19077,427,15,no,no,41.68375347,-94.50106981,10691,590.61978,18.101324
10/31/2020,Hamilton,Iowa,19079,502,5,no,no,42.38376963,-93.70679248,15227,576.7500791,26.40138346
10/31/2020,Hancock,Iowa,19081,405,6,no,no,43.08191963,-93.73428106,11006,571.0043385,19.27480976
10/31/2020,Hardin,Iowa,19083,539,7,no,no,42.38387858,-93.24040698,17324,569.3104562,30.42979417
10/31/2020,Harrison,Iowa,19085,732,17,no,no,41.68286814,-95.81684648,14335,696.8401159,20.57143335
10/31/2020,Henry,Iowa,19087,1168,5,no,no,40.98797212,-91.54454689,19941,434.3248263,45.9126414
10/31/2020,Howard,Iowa,19089,290,9,no,no,43.35676318,-92.31721205,9430,473.2476693,19.92614145
10/31/2020,Humboldt,Iowa,19091,393,3,no,no,42.77647003,-94.20717774,9607,434.3635485,22.11741762
10/31/2020,Ida,Iowa,19093,245,2,no,no,42.38690146,-95.51350491,7041,431.5075408,16.31721195
10/31/2020,Iowa,Iowa,19095,475,10,no,no,41.68632987,-92.06550659,16326,586.4565097,27.83838142
10/31/2020,Jackson,Iowa,19097,750,3,no,no,42.17175372,-90.57425276,19529,636.0383691,30.7041225
10/31/2020,Jasper,Iowa,19099,1285,34,no,no,41.68604159,-93.05376949,36715,730.4175771,50.26576735
10/31/2020,Jefferson,Iowa,19101,274,1,no,no,41.03177209,-91.94890346,17662,435.5152957,40.55425877
10/31/2020,Johnson,Iowa,19103,6189,31,no,no,41.67155643,-91.58808716,142006,614.033467,231.2675247
10/31/2020,Jones,Iowa,19105,565,4,no,no,42.12123886,-91.13143256,20481,575.6209192,35.58070827
10/31/2020,Keokuk,Iowa,19107,208,1,no,no,41.33646286,-92.17864658,10234,579.1789665,17.66984057
10/31/2020,Kossuth,Iowa,19109,510,0,no,no,43.20420476,-94.20672304,15226,972.7306343,15.6528431
10/31/2020,Lee,Iowa,19111,1071,12,no,no,40.64200509,-91.47926534,35172,517.5223528,67.96228184
10/31/2020,Linn,Iowa,19113,6511,134,no,no,42.07893956,-91.59896573,218076,716.8983221,304.1937654
10/31/2020,Louisa,Iowa,19115,558,15,no,no,41.21852781,-91.25961471,11251,401.7712122,28.00349965
10/31/2020,Lucas,Iowa,19117,218,6,no,no,41.02941074,-93.32772496,8700,430.6032069,20.20421553
10/31/2020,Lyon,Iowa,19119,594,8,no,no,43.38053981,-96.2102366,11730,587.6499745,19.96086192
10/31/2020,Madison,Iowa,19121,390,3,no,no,41.33072338,-94.01555849,15661,561.0058983,27.91592753
10/31/2020,Mahaska,Iowa,19123,772,25,no,no,41.3352231,-92.64091657,22324,570.8625619,39.10573488
10/31/2020,Marion,Iowa,19125,1120,11,no,no,41.33445149,-93.09945338,33197,554.4904193,59.86938429
10/31/2020,Marshall,Iowa,19127,2216,36,no,no,42.03583997,-92.99879694,40735,572.5028062,71.15248967
10/31/2020,Mills,Iowa,19129,454,3,no,no,41.03343678,-95.62132575,14841,437.4343856,33.927374
10/31/2020,Mitchell,Iowa,19131,308,1,no,no,43.35637158,-92.78902036,10757,469.1328644,22.92953834
10/31/2020,Monona,Iowa,19133,265,2,no,no,42.05165406,-95.95990234,9013,694.0715784,12.98569237
10/31/2020,Monroe,Iowa,19135,278,12,no,no,41.02980113,-92.86898187,7964,433.7150288,18.36228738
10/31/2020,Montgomery,Iowa,19137,205,7,no,no,41.03015919,-95.15635945,10380,424.0966461,24.47555315
10/31/2020,Muscatine,Iowa,19139,1587,58,no,no,41.48393029,-91.11270001,42949,437.4447602,98.1815395
10/31/2020,O'Brien,Iowa,19141,812,14,no,no,43.08377094,-95.62492771,14055,573.0348914,24.52730228
10/31/2020,Osceola,Iowa,19143,316,0,no,no,43.37858671,-95.62367552,6154,398.6865545,15.43568483
10/31/2020,Page,Iowa,19145,432,0,no,no,40.73914548,-95.15018351,15552,534.9433727,29.07223604
10/31/2020,Palo Alto,Iowa,19147,346,2,no,no,43.08209649,-94.67813985,9155,563.8601407,16.23629574
10/31/2020,Plymouth,Iowa,19149,1830,31,no,no,42.7378201,-96.21414189,24972,862.8280051,28.94203695
10/31/2020,Pocahontas,Iowa,19151,261,2,no,no,42.73417206,-94.67875215,7061,577.2406916,12.23233237
10/31/2020,Polk,Iowa,19153,20413,290,no,no,41.68550432,-93.57353895,459159,573.6843825,800.3686591
10/31/2020,Pottawattamie,Iowa,19155,3520,45,no,no,41.33662866,-95.54229436,93198,950.5613621,98.04522224
10/31/2020,Poweshiek,Iowa,19157,511,11,no,no,41.68645001,-92.53146055,18622,584.917309,31.83697886
10/31/2020,Ringgold,Iowa,19159,103,2,no,no,40.73517604,-94.24399233,5054,535.5005233,9.437899273
10/31/2020,Sac,Iowa,19161,428,4,no,no,42.38625201,-95.10535572,10034,575.0217785,17.44977386
10/31/2020,Scott,Iowa,19163,5167,43,no,no,41.63709919,-90.62324364,171116,458.0889611,373.5431641
10/31/2020,Shelby,Iowa,19165,423,2,no,no,41.68509871,-95.31018598,11944,590.7787451,20.21738273
10/31/2020,Sioux,Iowa,19167,2632,17,no,no,43.0826415,-96.17786352,34621,767.8650081,45.08735212
10/31/2020,Story,Iowa,19169,4218,18,no,no,42.03624596,-93.46505557,94834,572.6801011,165.5968137
10/31/2020,Tama,Iowa,19171,1042,38,no,no,42.07981773,-92.53256107,17423,721.0111787,24.16467388
10/31/2020,Taylor,Iowa,19173,270,2,no,no,40.73739971,-94.69640788,6209,531.9014021,11.67321608
10/31/2020,Union,Iowa,19175,285,5,no,no,41.0277424,-94.24236878,12539,423.6449233,29.59789982
10/31/2020,Van Buren,Iowa,19177,200,2,no,no,40.7532199,-91.94998211,7380,484.7886585,15.22312841
10/31/2020,Wapello,Iowa,19179,1629,62,no,no,41.03058816,-92.40947059,35242,431.8397634,81.60897395
10/31/2020,Warren,Iowa,19181,1394,7,no,no,41.33437659,-93.56136602,48170,569.829644,84.53403663
10/31/2020,Washington,Iowa,19183,720,12,no,no,41.33561045,-91.71786886,22115,568.8528234,38.87648807
10/31/2020,Wayne,Iowa,19185,161,3,no,no,40.7395073,-93.32736738,6403,525.4618258,12.18547131
10/31/2020,Webster,Iowa,19187,2042,15,no,no,42.42799141,-94.18180781,37050,715.6183214,51.77340894
10/31/2020,Winnebago,Iowa,19189,537,19,no,no,43.37752685,-93.7341315,10580,400.4889119,26.41771017
10/31/2020,Winneshiek,Iowa,19191,538,9,no,no,43.290628,-91.84368022,20789,689.8537631,30.13537232
10/31/2020,Woodbury,Iowa,19193,7655,100,no,no,42.38971637,-96.04479354,102426,872.8959182,117.3404502
10/31/2020,Worth,Iowa,19195,159,0,no,no,43.37738988,-93.26085102,7562,400.1232659,18.89917594
10/31/2020,Wright,Iowa,19197,792,1,no,no,42.73309128,-93.73515191,12891,580.4220922,22.20969907
10/31/2020,Allen,Kansas,20001,123,1,yes,yes,37.88571815,-95.30138388,12951,500.3028314,25.88632162
10/31/2020,Anderson,Kansas,20003,215,0,yes,yes,38.21419125,-95.29334838,7858,579.6461306,13.55654698
10/31/2020,Atchison,Kansas,20005,537,6,yes,yes,39.53175603,-95.31349547,16557,431.1716536,38.40001971
10/31/2020,Barber,Kansas,20007,74,0,yes,yes,37.22886803,-98.68483122,4831,1134.078681,4.25984553
10/31/2020,Barton,Kansas,20009,797,7,yes,yes,38.47897721,-98.75646336,27214,895.4002173,30.39311302
10/31/2020,Bourbon,Kansas,20011,307,3,yes,yes,37.85525105,-94.84933983,14751,635.4705481,23.21272015
10/31/2020,Brown,Kansas,20013,258,5,yes,yes,39.82649258,-95.56421625,9810,570.8721623,17.18423256
10/31/2020,Butler,Kansas,20015,1572,3,yes,yes,37.78124853,-96.83905422,66264,1429.866215,46.34279719
10/31/2020,Chase,Kansas,20017,107,3,yes,yes,38.30204862,-96.59395387,2694,773.0567931,3.484866861
10/31/2020,Chautauqua,Kansas,20019,32,0,yes,yes,37.15002896,-96.24538723,3470,638.8806049,5.431374773
10/31/2020,Cherokee,Kansas,20021,715,8,yes,yes,37.16933413,-94.84629756,20737,587.5675379,35.29296407
10/31/2020,Cheyenne,Kansas,20023,137,5,yes,yes,39.78587652,-101.731302,2679,1019.889176,2.626755987
10/31/2020,Clark,Kansas,20025,75,4,yes,yes,37.2355126,-99.82030507,2131,974.6319631,2.186466359
10/31/2020,Clay,Kansas,20027,115,3,yes,yes,39.34973253,-97.16519768,8346,645.3031815,12.93345553
10/31/2020,Cloud,Kansas,20029,170,1,yes,yes,39.480305,-97.6492656,9302,715.3414534,13.00358026
10/31/2020,Coffey,Kansas,20031,177,9,yes,yes,38.23687023,-95.73411232,8433,626.8871258,13.45218246
10/31/2020,Comanche,Kansas,20033,20,0,yes,yes,37.19126936,-99.27185256,1898,788.2971661,2.407721455
10/31/2020,Cowley,Kansas,20035,583,10,yes,yes,37.23771642,-96.83753582,35977,1125.740997,31.95850563
10/31/2020,Crawford,Kansas,20037,1527,12,yes,yes,37.50735023,-94.85180321,39281,589.7566883,66.60543369
10/31/2020,Decatur,Kansas,20039,128,1,yes,yes,39.78474431,-100.4599464,2886,893.5169828,3.229933013
10/31/2020,Dickinson,Kansas,20041,345,4,yes,yes,38.86649876,-97.15270448,19384,847.066255,22.88368812
10/31/2020,Doniphan,Kansas,20043,211,0,yes,yes,39.78806512,-95.14680698,7793,393.4050865,19.80909822
10/31/2020,Douglas,Kansas,20045,2961,19,yes,yes,38.88466137,-95.2926263,116352,455.8721287,255.2294661
10/31/2020,Edwards,Kansas,20047,83,0,yes,yes,37.88761633,-99.31218149,2975,621.8942003,4.7837719
10/31/2020,Elk,Kansas,20049,15,0,yes,yes,37.45369142,-96.24417235,2635,644.2640892,4.08993772
10/31/2020,Ellis,Kansas,20051,1447,18,yes,yes,38.91474721,-99.3172635,29032,899.9119713,32.26093321
10/31/2020,Ellsworth,Kansas,20053,330,1,yes,yes,38.69665129,-98.20476133,6375,715.8449868,8.905559328
10/31/2020,Finney,Kansas,20055,3105,20,yes,yes,38.04428699,-100.7370095,36983,1301.96164,28.4055988
10/31/2020,Ford,Kansas,20057,3491,10,yes,yes,37.69172105,-99.88796889,34492,1098.270322,31.40574713
10/31/2020,Franklin,Kansas,20059,594,5,yes,yes,38.56453747,-95.28595499,25663,571.7623073,44.88403603
10/31/2020,Geary,Kansas,20061,573,4,yes,yes,39.00237157,-96.75255067,36818,384.620405,95.72555049
10/31/2020,Gove,Kansas,20063,199,12,yes,yes,38.91609911,-100.4829761,2682,1071.664383,2.502649191
10/31/2020,Graham,Kansas,20065,58,1,yes,yes,39.34973055,-99.8832357,2577,898.52635,2.868029413
10/31/2020,Grant,Kansas,20067,473,8,yes,yes,37.56226601,-101.3080367,7748,574.7996563,13.47947918
10/31/2020,Gray,Kansas,20069,208,2,yes,yes,37.73818844,-100.4378924,6037,868.8670172,6.948128863
10/31/2020,Greeley,Kansas,20071,44,0,yes,yes,38.48057036,-101.8060533,1235,778.4040197,1.586579679
10/31/2020,Greenwood,Kansas,20073,108,0,yes,yes,37.87783139,-96.23261998,6304,1143.299376,5.513866388
10/31/2020,Hamilton,Kansas,20075,72,0,yes,yes,37.99912938,-101.7912497,2567,996.5131785,2.575981989
10/31/2020,Harper,Kansas,20077,165,3,yes,yes,37.19161725,-98.07548188,5798,801.2682698,7.236028455
10/31/2020,Harvey,Kansas,20079,649,8,yes,yes,38.04322583,-97.42724158,34814,539.7556141,64.49956071
10/31/2020,Haskell,Kansas,20081,178,1,yes,yes,37.56223693,-100.8711993,4087,577.5209669,7.076799344
10/31/2020,Hodgeman,Kansas,20083,40,0,yes,yes,38.08749115,-99.89793299,1919,859.9916874,2.231416917
10/31/2020,Jackson,Kansas,20085,352,4,yes,yes,39.41683005,-95.79367694,13365,656.2191017,20.36667321
10/31/2020,Jefferson,Kansas,20087,299,6,yes,yes,39.23576977,-95.38344686,18880,532.5741852,35.45046028
10/31/2020,Jewell,Kansas,20089,29,1,yes,yes,39.78474536,-98.21833971,3003,909.7803592,3.300796692
10/31/2020,Johnson,Kansas,20091,15817,205,yes,yes,38.88377176,-94.82232293,572428,473.4567061,1209.039797
10/31/2020,Kearny,Kansas,20093,160,6,yes,yes,38.00025809,-101.3198988,3943,870.542901,4.52935748
10/31/2020,Kingman,Kansas,20095,151,3,yes,yes,37.55889504,-98.13634934,7697,863.3625108,8.915142717
10/31/2020,Kiowa,Kansas,20097,65,0,yes,yes,37.55822979,-99.28607952,2520,722.639226,3.487217285
10/31/2020,Labette,Kansas,20099,414,6,yes,yes,37.19131264,-95.29758186,20833,645.2943854,32.2844898
10/31/2020,Lane,Kansas,20101,28,1,yes,yes,38.4813383,-100.4664329,1687,717.4136134,2.351502632
10/31/2020,Leavenworth,Kansas,20103,2687,18,yes,yes,39.19931406,-95.03799435,78785,463.1386819,170.1110339
10/31/2020,Lincoln,Kansas,20105,23,1,yes,yes,39.04531919,-98.20770044,3134,719.3955461,4.356435089
10/31/2020,Linn,Kansas,20107,127,1,yes,yes,38.21228125,-94.84299831,9524,594.0638322,16.03194721
10/31/2020,Logan,Kansas,20109,124,0,yes,yes,38.91731049,-101.1484187,2800,1072.993874,2.609520955
10/31/2020,Lyon,Kansas,20111,1316,41,yes,yes,38.45620834,-96.15265191,33401,847.4777455,39.41224436
10/31/2020,Marion,Kansas,20115,172,1,yes,yes,38.35887192,-97.09689919,12213,944.2901521,12.93352469
10/31/2020,Marshall,Kansas,20117,96,0,yes,yes,39.78357378,-96.52294833,9963,900.1774975,11.06781721
10/31/2020,McPherson,Kansas,20113,455,7,yes,yes,38.39166219,-97.64803574,29164,898.2742474,32.46669943
10/31/2020,Meade,Kansas,20119,170,2,yes,yes,37.23814231,-100.366253,4310,978.0870575,4.406560711
10/31/2020,Miami,Kansas,20121,583,2,yes,yes,38.5635382,-94.83810316,32787,575.661497,56.95534645
10/31/2020,Mitchell,Kansas,20123,58,0,yes,yes,39.39327324,-98.2093782,6299,701.7917088,8.975597633
10/31/2020,Montgomery,Kansas,20125,722,6,yes,yes,37.1925276,-95.7428868,33765,643.5272633,52.46863952
10/31/2020,Morris,Kansas,20127,69,0,yes,yes,38.68743016,-96.64989338,5694,695.2780599,8.189529238
10/31/2020,Morton,Kansas,20129,62,2,yes,yes,37.1913947,-101.7992582,3033,729.7301742,4.156330802
10/31/2020,Nemaha,Kansas,20131,357,2,yes,yes,39.78341456,-96.01408956,10177,717.4255502,14.18544405
10/31/2020,Neosho,Kansas,20133,280,0,yes,yes,37.55849016,-95.30679083,16358,571.4720826,28.62432042
10/31/2020,Ness,Kansas,20135,157,9,yes,yes,38.47942541,-99.91615805,3047,1074.737293,2.835111446
10/31/2020,Norton,Kansas,20137,715,18,yes,yes,39.78439075,-99.90349711,5558,878.0433231,6.329983788
10/31/2020,Osage,Kansas,20139,174,2,yes,yes,38.65231404,-95.72693332,16001,705.517712,22.67979914
10/31/2020,Osborne,Kansas,20141,38,0,yes,yes,39.35033445,-98.76795115,3746,892.5038832,4.197180618
10/31/2020,Ottawa,Kansas,20143,123,0,yes,yes,39.13253783,-97.65021722,6004,720.7325432,8.330413351
10/31/2020,Pawnee,Kansas,20145,438,1,yes,yes,38.18132965,-99.23671536,6840,754.2624899,9.068461036
10/31/2020,Phillips,Kansas,20147,211,9,yes,yes,39.7845704,-99.34701803,5484,885.8716643,6.190512939
10/31/2020,Pottawatomie,Kansas,20149,405,0,yes,yes,39.37901833,-96.34244795,22920,841.0195506,27.25263638
10/31/2020,Pratt,Kansas,20151,192,0,yes,yes,37.64774049,-98.73963171,9729,735.037374,13.23606165
10/31/2020,Rawlins,Kansas,20153,154,0,yes,yes,39.78519523,-101.0758575,2557,1069.415949,2.391024747
10/31/2020,Reno,Kansas,20155,2376,18,yes,yes,37.95295793,-98.08599136,63803,1255.345892,50.82503589
10/31/2020,Republic,Kansas,20157,89,1,yes,yes,39.82777583,-97.65062641,4768,717.3710677,6.646490519
10/31/2020,Rice,Kansas,20159,160,1,yes,yes,38.34717355,-98.2009988,9949,726.2323229,13.69947286
10/31/2020,Riley,Kansas,20161,2177,11,yes,yes,39.29647814,-96.7351879,75026,609.7808925,123.0376368
10/31/2020,Rooks,Kansas,20163,164,7,yes,yes,39.35023401,-99.32502508,5160,890.537183,5.794255533
10/31/2020,Rush,Kansas,20165,108,0,yes,yes,38.52313451,-99.30916161,3144,717.7626701,4.380277954
